{"businesses": [{"id": "deck-the-halls-san-francisco-2", "name": "Deck The Halls", "image_url": "https://s3-media2.fl.yelpcdn.com/bphoto/mt2PSgY-KUeKu0Bdm-xs4w/o.jpg", "is_closed": false, "url": "https://www.yelp.com/biz/deck-the-halls-san-francisco-2?adjust_creative=A1HR7D-cXuiUdMXadx5pVQ&utm_campaign=yelp_api_v3&utm_medium=api_v3_business_search&utm_source=A1HR7D-cXuiUdMXadx5pVQ", "review_count": 17, "categories": [{"alias": "bars", "title": "Bars"}, {"alias": "popuprestaurants", "title": "Pop-Up Restaurants"}], "rating": 3.0, "coordinates": {"latitude": 37.8003871, "longitude": -122.411025}, "transactions": [], "location": {"address1": "1707 Powell St", "address2": "", "address3": null, "city": "San Francisco", "zip_code": "94133", "country": "US", "state": "CA", "display_address": ["1707 Powell St", "San Francisco, CA 94133"]}, "phone": "", "display_phone": "", "distance": 4926.449205197764}, {"id": "smoky-man-san-francisco-2", "name": "Smoky Man", "image_url": "https://s3-media2.fl.yelpcdn.com/bphoto/WPlsZpYJpw34DNtbrXJKMg/o.jpg", "is_closed": false, "url": "https://www.yelp.com/biz/smoky-man-san-francisco-2?adjust_creative=A1HR7D-cXuiUdMXadx5pVQ&utm_campaign=yelp_api_v3&utm_medium=api_v3_business_search&utm_source=A1HR7D-cXuiUdMXadx5pVQ", "review_count": 12, "categories": [{"alias": "bbq", "title": "Barbeque"}, {"alias": "chinese", "title": "Chinese"}, {"alias": "tapasmallplates", "title": "Tapas/Small Plates"}], "rating": 3.5, "coordinates": {"latitude": 37.75436, "longitude": -122.47783}, "transactions": [], "price": "$$", "location": {"address1": "1310 Noriega St", "address2": null, "address3": "", "city": "San Francisco", "zip_code": "94122", "country": "US", "state": "CA", "display_address": ["1310 Noriega St", "San Francisco, CA 94122"]}, "phone": "+14155661688", "display_phone": "(415) 566-1688", "distance": 3706.1841746009536}, {"id": "oasis-grill-san-francisco", "name": "Oasis Grill", "image_url": "https://s3-media3.fl.yelpcdn.com/bphoto/Sg5cz9hi_p6G22TFja2xRA/o.jpg", "is_closed": false, "url": "https://www.yelp.com/biz/oasis-grill-san-francisco?adjust_creative=A1HR7D-cXuiUdMXadx5pVQ&utm_campaign=yelp_api_v3&utm_medium=api_v3_business_search&utm_source=A1HR7D-cXuiUdMXadx5pVQ", "review_count": 1128, "categories": [{"alias": "greek", "title": "Greek"}, {"alias": "mediterranean", "title": "Mediterranean"}, {"alias": "tradamerican", "title": "American (Traditional)"}], "rating": 4.0, "coordinates": {"latitude": 37.7944464239893, "longitude": -122.396736520868}, "transactions": ["pickup"], "price": "$", "location": {"address1": "91 Drumm St", "address2": "", "address3": "", "city": "San Francisco", "zip_code": "94111", "country": "US", "state": "CA", "display_address": ["91 Drumm St", "San Francisco, CA 94111"]}, "phone": "+14157810313", "display_phone": "(415) 781-0313", "distance": 5108.368459025128}, {"id": "breakfast-at-tiffanys-san-francisco", "name": "Breakfast at Tiffany's", "image_url": "https://s3-media1.fl.yelpcdn.com/bphoto/SUxfFvpMXCwADuwlojazUg/o.jpg", "is_closed": false, "url": "https://www.yelp.com/biz/breakfast-at-tiffanys-san-francisco?adjust_creative=A1HR7D-cXuiUdMXadx5pVQ&utm_campaign=yelp_api_v3&utm_medium=api_v3_business_search&utm_source=A1HR7D-cXuiUdMXadx5pVQ", "review_count": 697, "categories": [{"alias": "diners", "title": "Diners"}, {"alias": "breakfast_brunch", "title": "Breakfast & Brunch"}, {"alias": "tradamerican", "title": "American (Traditional)"}], "rating": 4.0, "coordinates": {"latitude": 37.7304538339376, "longitude": -122.40473203361}, "transactions": ["delivery", "pickup"], "price": "$$", "location": {"address1": "2499 San Bruno Ave", "address2": "", "address3": "", "city": "San Francisco", "zip_code": "94134", "country": "US", "state": "CA", "display_address": ["2499 San Bruno Ave", "San Francisco, CA 94134"]}, "phone": "+14154688805", "display_phone": "(415) 468-8805", "distance": 4390.133140388158}, {"id": "isa-restaurant-san-francisco", "name": "Isa Restaurant", "image_url": "https://s3-media3.fl.yelpcdn.com/bphoto/Pd9OoIT1fflvigaZ5RiqAg/o.jpg", "is_closed": false, "url": "https://www.yelp.com/biz/isa-restaurant-san-francisco?adjust_creative=A1HR7D-cXuiUdMXadx5pVQ&utm_campaign=yelp_api_v3&utm_medium=api_v3_business_search&utm_source=A1HR7D-cXuiUdMXadx5pVQ", "review_count": 1876, "categories": [{"alias": "french", "title": "French"}, {"alias": "gluten_free", "title": "Gluten-Free"}, {"alias": "venues", "title": "Venues & Event Spaces"}], "rating": 4.0, "coordinates": {"latitude": 37.8001099, "longitude": -122.43749}, "transactions": ["delivery", "pickup", "restaurant_reservation"], "price": "$$$", "location": {"address1": "3324 Steiner St", "address2": "", "address3": "", "city": "San Francisco", "zip_code": "94123", "country": "US", "state": "CA", "display_address": ["3324 Steiner St", "San Francisco, CA 94123"]}, "phone": "+14155679588", "display_phone": "(415) 567-9588", "distance": 4359.64266650263}, {"id": "manzoni-san-francisco-2", "name": "Manzoni", "image_url": "https://s3-media4.fl.yelpcdn.com/bphoto/woYMuiM4bWwaq_cL7Y81jQ/o.jpg", "is_closed": false, "url": "https://www.yelp.com/biz/manzoni-san-francisco-2?adjust_creative=A1HR7D-cXuiUdMXadx5pVQ&utm_campaign=yelp_api_v3&utm_medium=api_v3_business_search&utm_source=A1HR7D-cXuiUdMXadx5pVQ", "review_count": 197, "categories": [{"alias": "italian", "title": "Italian"}], "rating": 4.0, "coordinates": {"latitude": 37.7348084002733, "longitude": -122.433823272586}, "transactions": [], "price": "$$", "location": {"address1": "2788 Diamond St", "address2": "", "address3": "", "city": "San Francisco", "zip_code": "94131", "country": "US", "state": "CA", "display_address": ["2788 Diamond St", "San Francisco, CA 94131"]}, "phone": "+14153342251", "display_phone": "(415) 334-2251", "distance": 2915.6090699567117}, {"id": "lupa-trattoria-san-francisco", "name": "Lupa Trattoria", "image_url": "https://s3-media3.fl.yelpcdn.com/bphoto/7xQ-uyE4i-29P-zRIzQJHw/o.jpg", "is_closed": false, "url": "https://www.yelp.com/biz/lupa-trattoria-san-francisco?adjust_creative=A1HR7D-cXuiUdMXadx5pVQ&utm_campaign=yelp_api_v3&utm_medium=api_v3_business_search&utm_source=A1HR7D-cXuiUdMXadx5pVQ", "review_count": 579, "categories": [{"alias": "italian", "title": "Italian"}], "rating": 4.0, "coordinates": {"latitude": 37.75102, "longitude": -122.43452}, "transactions": [], "price": "$$", "location": {"address1": "4109 24th St", "address2": "", "address3": "", "city": "San Francisco", "zip_code": "94114", "country": "US", "state": "CA", "display_address": ["4109 24th St", "San Francisco, CA 94114"]}, "phone": "+14152825872", "display_phone": "(415) 282-5872", "distance": 1104.522637250492}, {"id": "maven-san-francisco", "name": "Maven", "image_url": "https://s3-media2.fl.yelpcdn.com/bphoto/p3xKm7Aq-kDw_XWGUJ1UPA/o.jpg", "is_closed": false, "url": "https://www.yelp.com/biz/maven-san-francisco?adjust_creative=A1HR7D-cXuiUdMXadx5pVQ&utm_campaign=yelp_api_v3&utm_medium=api_v3_business_search&utm_source=A1HR7D-cXuiUdMXadx5pVQ", "review_count": 615, "categories": [{"alias": "newamerican", "title": "American (New)"}, {"alias": "gastropubs", "title": "Gastropubs"}, {"alias": "cocktailbars", "title": "Cocktail Bars"}], "rating": 4.0, "coordinates": {"latitude": 37.772233, "longitude": -122.432007}, "transactions": ["restaurant_reservation"], "price": "$$", "location": {"address1": "598 Haight St", "address2": "", "address3": "", "city": "San Francisco", "zip_code": "94117", "country": "US", "state": "CA", "display_address": ["598 Haight St", "San Francisco, CA 94117"]}, "phone": "+14158297982", "display_phone": "(415) 829-7982", "distance": 1319.291288059854}, {"id": "locanda-san-francisco", "name": "Locanda", "image_url": "https://s3-media1.fl.yelpcdn.com/bphoto/u103gYDteZsQsez81q3nWA/o.jpg", "is_closed": false, "url": "https://www.yelp.com/biz/locanda-san-francisco?adjust_creative=A1HR7D-cXuiUdMXadx5pVQ&utm_campaign=yelp_api_v3&utm_medium=api_v3_business_search&utm_source=A1HR7D-cXuiUdMXadx5pVQ", "review_count": 901, "categories": [{"alias": "italian", "title": "Italian"}, {"alias": "bars", "title": "Bars"}], "rating": 4.0, "coordinates": {"latitude": 37.76401, "longitude": -122.4215}, "transactions": ["restaurant_reservation"], "price": "$$$", "location": {"address1": "557 Valencia St", "address2": "", "address3": "", "city": "San Francisco", "zip_code": "94110", "country": "US", "state": "CA", "display_address": ["557 Valencia St", "San Francisco, CA 94110"]}, "phone": "+14158636800", "display_phone": "(415) 863-6800", "distance": 1343.611943294068}, {"id": "kezar-pub-san-francisco-2", "name": "Kezar Pub", "image_url": "https://s3-media2.fl.yelpcdn.com/bphoto/L6mDJWi2XIPMILGL4u3KrA/o.jpg", "is_closed": false, "url": "https://www.yelp.com/biz/kezar-pub-san-francisco-2?adjust_creative=A1HR7D-cXuiUdMXadx5pVQ&utm_campaign=yelp_api_v3&utm_medium=api_v3_business_search&utm_source=A1HR7D-cXuiUdMXadx5pVQ", "review_count": 625, "categories": [{"alias": "pubs", "title": "Pubs"}, {"alias": "sportsbars", "title": "Sports Bars"}, {"alias": "tradamerican", "title": "American (Traditional)"}], "rating": 4.0, "coordinates": {"latitude": 37.7678833007812, "longitude": -122.452903747559}, "transactions": ["pickup"], "price": "$$", "location": {"address1": "770 Stanyan St", "address2": "", "address3": "", "city": "San Francisco", "zip_code": "94117", "country": "US", "state": "CA", "display_address": ["770 Stanyan St", "San Francisco, CA 94117"]}, "phone": "+14153869292", "display_phone": "(415) 386-9292", "distance": 1641.729372775688}, {"id": "boulevard-san-francisco", "name": "Boulevard", "image_url": "https://s3-media1.fl.yelpcdn.com/bphoto/lbxgYCYvMu1zNap7Wg741g/o.jpg", "is_closed": false, "url": "https://www.yelp.com/biz/boulevard-san-francisco?adjust_creative=A1HR7D-cXuiUdMXadx5pVQ&utm_campaign=yelp_api_v3&utm_medium=api_v3_business_search&utm_source=A1HR7D-cXuiUdMXadx5pVQ", "review_count": 2458, "categories": [{"alias": "newamerican", "title": "American (New)"}], "rating": 4.0, "coordinates": {"latitude": 37.79337, "longitude": -122.39274}, "transactions": [], "price": "$$$$", "location": {"address1": "1 Mission St", "address2": "", "address3": "", "city": "San Francisco", "zip_code": "94105", "country": "US", "state": "CA", "display_address": ["1 Mission St", "San Francisco, CA 94105"]}, "phone": "+14155436084", "display_phone": "(415) 543-6084", "distance": 5266.671854391888}, {"id": "super-duper-burgers-san-francisco-4", "name": "Super Duper Burgers", "image_url": "https://s3-media2.fl.yelpcdn.com/bphoto/WfcMlSqrDdik7_3j-NmaEg/o.jpg", "is_closed": false, "url": "https://www.yelp.com/biz/super-duper-burgers-san-francisco-4?adjust_creative=A1HR7D-cXuiUdMXadx5pVQ&utm_campaign=yelp_api_v3&utm_medium=api_v3_business_search&utm_source=A1HR7D-cXuiUdMXadx5pVQ", "review_count": 1146, "categories": [{"alias": "burgers", "title": "Burgers"}, {"alias": "newamerican", "title": "American (New)"}], "rating": 4.0, "coordinates": {"latitude": 37.7640087, "longitude": -122.433698}, "transactions": [], "price": "$", "location": {"address1": "2304 Market St", "address2": "", "address3": "", "city": "San Francisco", "zip_code": "94114", "country": "US", "state": "CA", "display_address": ["2304 Market St", "San Francisco, CA 94114"]}, "phone": "+14155588123", "display_phone": "(415) 558-8123", "distance": 421.82675267215797}, {"id": "han-il-kwan-san-francisco", "name": "Han Il Kwan", "image_url": "https://s3-media4.fl.yelpcdn.com/bphoto/CO-u_XORXdBNcRVfQt81eg/o.jpg", "is_closed": false, "url": "https://www.yelp.com/biz/han-il-kwan-san-francisco?adjust_creative=A1HR7D-cXuiUdMXadx5pVQ&utm_campaign=yelp_api_v3&utm_medium=api_v3_business_search&utm_source=A1HR7D-cXuiUdMXadx5pVQ", "review_count": 1377, "categories": [{"alias": "korean", "title": "Korean"}], "rating": 4.0, "coordinates": {"latitude": 37.77675, "longitude": -122.4783}, "transactions": [], "price": "$$", "location": {"address1": "1802 Balboa St", "address2": "", "address3": "", "city": "San Francisco", "zip_code": "94121", "country": "US", "state": "CA", "display_address": ["1802 Balboa St", "San Francisco, CA 94121"]}, "phone": "+14157524447", "display_phone": "(415) 752-4447", "distance": 4083.5026814670414}, {"id": "ruths-chris-steak-house-san-francisco", "name": "Ruth's Chris Steak House", "image_url": "https://s3-media2.fl.yelpcdn.com/bphoto/tQNAjQp2HBKImKq_ce-c2g/o.jpg", "is_closed": false, "url": "https://www.yelp.com/biz/ruths-chris-steak-house-san-francisco?adjust_creative=A1HR7D-cXuiUdMXadx5pVQ&utm_campaign=yelp_api_v3&utm_medium=api_v3_business_search&utm_source=A1HR7D-cXuiUdMXadx5pVQ", "review_count": 1880, "categories": [{"alias": "steak", "title": "Steakhouses"}, {"alias": "wine_bars", "title": "Wine Bars"}], "rating": 4.0, "coordinates": {"latitude": 37.79049897176, "longitude": -122.4225857705}, "transactions": [], "price": "$$$", "location": {"address1": "1601 Van Ness Ave", "address2": "", "address3": "", "city": "San Francisco", "zip_code": "94109", "country": "US", "state": "CA", "display_address": ["1601 Van Ness Ave", "San Francisco, CA 94109"]}, "phone": "+14156730557", "display_phone": "(415) 673-0557", "distance": 3509.555930402886}, {"id": "surisan-san-francisco", "name": "Surisan", "image_url": "https://s3-media2.fl.yelpcdn.com/bphoto/VUbannEl6fuNPSmN7gVfUw/o.jpg", "is_closed": false, "url": "https://www.yelp.com/biz/surisan-san-francisco?adjust_creative=A1HR7D-cXuiUdMXadx5pVQ&utm_campaign=yelp_api_v3&utm_medium=api_v3_business_search&utm_source=A1HR7D-cXuiUdMXadx5pVQ", "review_count": 509, "categories": [{"alias": "korean", "title": "Korean"}, {"alias": "newamerican", "title": "American (New)"}, {"alias": "breakfast_brunch", "title": "Breakfast & Brunch"}], "rating": 4.5, "coordinates": {"latitude": 37.80678, "longitude": -122.41756}, "transactions": ["pickup", "restaurant_reservation"], "price": "$$", "location": {"address1": "505 Beach St", "address2": "", "address3": null, "city": "San Francisco", "zip_code": "94133", "country": "US", "state": "CA", "display_address": ["505 Beach St", "San Francisco, CA 94133"]}, "phone": "+14157718449", "display_phone": "(415) 771-8449", "distance": 5365.17216055272}, {"id": "coqueta-san-francisco", "name": "Coqueta", "image_url": "https://s3-media1.fl.yelpcdn.com/bphoto/4KeM4_kJh3S1_jCSP0uYXQ/o.jpg", "is_closed": false, "url": "https://www.yelp.com/biz/coqueta-san-francisco?adjust_creative=A1HR7D-cXuiUdMXadx5pVQ&utm_campaign=yelp_api_v3&utm_medium=api_v3_business_search&utm_source=A1HR7D-cXuiUdMXadx5pVQ", "review_count": 1614, "categories": [{"alias": "spanish", "title": "Spanish"}, {"alias": "tapasmallplates", "title": "Tapas/Small Plates"}], "rating": 4.0, "coordinates": {"latitude": 37.7984671979957, "longitude": -122.396616339684}, "transactions": ["pickup", "restaurant_reservation"], "price": "$$$", "location": {"address1": "The Embarcadero", "address2": "", "address3": "Pier 5", "city": "San Francisco", "zip_code": "94105", "country": "US", "state": "CA", "display_address": ["The Embarcadero", "Pier 5", "San Francisco, CA 94105"]}, "phone": "+14157048866", "display_phone": "(415) 704-8866", "distance": 5450.137916669815}, {"id": "el-castillito-san-francisco-2", "name": "El Castillito", "image_url": "https://s3-media4.fl.yelpcdn.com/bphoto/07pBan7XFlgL71eoOePwpw/o.jpg", "is_closed": false, "url": "https://www.yelp.com/biz/el-castillito-san-francisco-2?adjust_creative=A1HR7D-cXuiUdMXadx5pVQ&utm_campaign=yelp_api_v3&utm_medium=api_v3_business_search&utm_source=A1HR7D-cXuiUdMXadx5pVQ", "review_count": 779, "categories": [{"alias": "mexican", "title": "Mexican"}], "rating": 4.0, "coordinates": {"latitude": 37.7688743812288, "longitude": -122.429237365723}, "transactions": ["pickup"], "price": "$", "location": {"address1": "136 Church St", "address2": "", "address3": "", "city": "San Francisco", "zip_code": "94114", "country": "US", "state": "CA", "display_address": ["136 Church St", "San Francisco, CA 94114"]}, "phone": "+14156213428", "display_phone": "(415) 621-3428", "distance": 1089.966315148614}, {"id": "super-duper-burgers-san-francisco-3", "name": "Super Duper Burgers", "image_url": "https://s3-media2.fl.yelpcdn.com/bphoto/R_jqJrfJl0K8p-UxlalZ2w/o.jpg", "is_closed": false, "url": "https://www.yelp.com/biz/super-duper-burgers-san-francisco-3?adjust_creative=A1HR7D-cXuiUdMXadx5pVQ&utm_campaign=yelp_api_v3&utm_medium=api_v3_business_search&utm_source=A1HR7D-cXuiUdMXadx5pVQ", "review_count": 2371, "categories": [{"alias": "burgers", "title": "Burgers"}, {"alias": "salad", "title": "Salad"}], "rating": 4.0, "coordinates": {"latitude": 37.7868189045762, "longitude": -122.40416383317}, "transactions": [], "price": "$$", "location": {"address1": "721 Market St", "address2": "", "address3": "", "city": "San Francisco", "zip_code": "94103", "country": "US", "state": "CA", "display_address": ["721 Market St", "San Francisco, CA 94103"]}, "phone": "+14155383437", "display_phone": "(415) 538-3437", "distance": 4044.4678920896154}, {"id": "my-tofu-house-san-francisco", "name": "My Tofu House", "image_url": "https://s3-media2.fl.yelpcdn.com/bphoto/Qva0opNyOGgxw6Rr15d8BQ/o.jpg", "is_closed": false, "url": "https://www.yelp.com/biz/my-tofu-house-san-francisco?adjust_creative=A1HR7D-cXuiUdMXadx5pVQ&utm_campaign=yelp_api_v3&utm_medium=api_v3_business_search&utm_source=A1HR7D-cXuiUdMXadx5pVQ", "review_count": 1563, "categories": [{"alias": "korean", "title": "Korean"}], "rating": 4.0, "coordinates": {"latitude": 37.7806563, "longitude": -122.4691286}, "transactions": [], "price": "$$", "location": {"address1": "4627 Geary Blvd", "address2": "", "address3": "", "city": "San Francisco", "zip_code": "94118", "country": "US", "state": "CA", "display_address": ["4627 Geary Blvd", "San Francisco, CA 94118"]}, "phone": "+14157501818", "display_phone": "(415) 750-1818", "distance": 3616.33107145223}, {"id": "esperpento-san-francisco", "name": "Esperpento", "image_url": "https://s3-media3.fl.yelpcdn.com/bphoto/qeQXUHYg_HwOA0wkqj7nuQ/o.jpg", "is_closed": false, "url": "https://www.yelp.com/biz/esperpento-san-francisco?adjust_creative=A1HR7D-cXuiUdMXadx5pVQ&utm_campaign=yelp_api_v3&utm_medium=api_v3_business_search&utm_source=A1HR7D-cXuiUdMXadx5pVQ", "review_count": 1262, "categories": [{"alias": "spanish", "title": "Spanish"}, {"alias": "tapas", "title": "Tapas Bars"}], "rating": 3.5, "coordinates": {"latitude": 37.7552226240977, "longitude": -122.420739139635}, "transactions": [], "price": "$$", "location": {"address1": "3295 22nd St", "address2": "", "address3": "", "city": "San Francisco", "zip_code": "94110", "country": "US", "state": "CA", "display_address": ["3295 22nd St", "San Francisco, CA 94110"]}, "phone": "+14152828867", "display_phone": "(415) 282-8867", "distance": 1518.3376830897419}, {"id": "saigon-sandwich-san-francisco", "name": "Saigon Sandwich", "image_url": "https://s3-media3.fl.yelpcdn.com/bphoto/VoGzzO3uph70MlXatSoghg/o.jpg", "is_closed": false, "url": "https://www.yelp.com/biz/saigon-sandwich-san-francisco?adjust_creative=A1HR7D-cXuiUdMXadx5pVQ&utm_campaign=yelp_api_v3&utm_medium=api_v3_business_search&utm_source=A1HR7D-cXuiUdMXadx5pVQ", "review_count": 2962, "categories": [{"alias": "vietnamese", "title": "Vietnamese"}, {"alias": "sandwiches", "title": "Sandwiches"}], "rating": 4.5, "coordinates": {"latitude": 37.7831519576568, "longitude": -122.417318022037}, "transactions": [], "price": "$", "location": {"address1": "560 Larkin St", "address2": "", "address3": "", "city": "San Francisco", "zip_code": "94102", "country": "US", "state": "CA", "display_address": ["560 Larkin St", "San Francisco, CA 94102"]}, "phone": "+14154745698", "display_phone": "(415) 474-5698", "distance": 2991.557987597424}, {"id": "dumpling-kitchen-san-francisco", "name": "Dumpling Kitchen", "image_url": "https://s3-media2.fl.yelpcdn.com/bphoto/5mUKAyVQd7FM0u9rLI8Fdw/o.jpg", "is_closed": false, "url": "https://www.yelp.com/biz/dumpling-kitchen-san-francisco?adjust_creative=A1HR7D-cXuiUdMXadx5pVQ&utm_campaign=yelp_api_v3&utm_medium=api_v3_business_search&utm_source=A1HR7D-cXuiUdMXadx5pVQ", "review_count": 1143, "categories": [{"alias": "chinese", "title": "Chinese"}], "rating": 4.0, "coordinates": {"latitude": 37.7423, "longitude": -122.48701}, "transactions": [], "price": "$$", "location": {"address1": "1935 Taraval St", "address2": "", "address3": "", "city": "San Francisco", "zip_code": "94116", "country": "US", "state": "CA", "display_address": ["1935 Taraval St", "San Francisco, CA 94116"]}, "phone": "+14156828938", "display_phone": "(415) 682-8938", "distance": 4903.433878073652}, {"id": "fermentation-lab-san-francisco", "name": "Fermentation Lab", "image_url": "https://s3-media3.fl.yelpcdn.com/bphoto/w4FHivA5QXw-n60hB0f1MA/o.jpg", "is_closed": false, "url": "https://www.yelp.com/biz/fermentation-lab-san-francisco?adjust_creative=A1HR7D-cXuiUdMXadx5pVQ&utm_campaign=yelp_api_v3&utm_medium=api_v3_business_search&utm_source=A1HR7D-cXuiUdMXadx5pVQ", "review_count": 112, "categories": [{"alias": "gastropubs", "title": "Gastropubs"}, {"alias": "beerbar", "title": "Beer Bar"}], "rating": 4.5, "coordinates": {"latitude": 37.778524, "longitude": -122.415608}, "transactions": [], "price": "$$", "location": {"address1": "1230 Market St", "address2": null, "address3": "", "city": "San Francisco", "zip_code": "94102", "country": "US", "state": "CA", "display_address": ["1230 Market St", "San Francisco, CA 94102"]}, "phone": "", "display_phone": "", "distance": 2682.500418809642}, {"id": "slurp-noodle-bar-san-francisco", "name": "Slurp Noodle Bar", "image_url": "https://s3-media4.fl.yelpcdn.com/bphoto/8KjomFLKRrvRY9dvrBNX5g/o.jpg", "is_closed": false, "url": "https://www.yelp.com/biz/slurp-noodle-bar-san-francisco?adjust_creative=A1HR7D-cXuiUdMXadx5pVQ&utm_campaign=yelp_api_v3&utm_medium=api_v3_business_search&utm_source=A1HR7D-cXuiUdMXadx5pVQ", "review_count": 355, "categories": [{"alias": "asianfusion", "title": "Asian Fusion"}, {"alias": "ramen", "title": "Ramen"}, {"alias": "noodles", "title": "Noodles"}], "rating": 3.5, "coordinates": {"latitude": 37.76149, "longitude": -122.43469}, "transactions": ["pickup", "delivery"], "price": "$$", "location": {"address1": "469 Castro St", "address2": null, "address3": "", "city": "San Francisco", "zip_code": "94114", "country": "US", "state": "CA", "display_address": ["469 Castro St", "San Francisco, CA 94114"]}, "phone": "+14155536633", "display_phone": "(415) 553-6633", "distance": 164.74381472209998}, {"id": "roka-akor-san-francisco-san-francisco-4", "name": "Roka Akor - San Francisco", "image_url": "https://s3-media2.fl.yelpcdn.com/bphoto/OMN9YtDl_UELIrP5rcsr8A/o.jpg", "is_closed": false, "url": "https://www.yelp.com/biz/roka-akor-san-francisco-san-francisco-4?adjust_creative=A1HR7D-cXuiUdMXadx5pVQ&utm_campaign=yelp_api_v3&utm_medium=api_v3_business_search&utm_source=A1HR7D-cXuiUdMXadx5pVQ", "review_count": 957, "categories": [{"alias": "steak", "title": "Steakhouses"}, {"alias": "japanese", "title": "Japanese"}, {"alias": "cocktailbars", "title": "Cocktail Bars"}], "rating": 4.0, "coordinates": {"latitude": 37.7965391394848, "longitude": -122.403850511802}, "transactions": ["restaurant_reservation"], "price": "$$$$", "location": {"address1": "801 Montgomery St", "address2": "", "address3": "", "city": "San Francisco", "zip_code": "94133", "country": "US", "state": "CA", "display_address": ["801 Montgomery St", "San Francisco, CA 94133"]}, "phone": "+14153628887", "display_phone": "(415) 362-8887", "distance": 4890.00009057759}, {"id": "little-star-pizza-valencia-san-francisco-2", "name": "Little Star Pizza Valencia", "image_url": "https://s3-media1.fl.yelpcdn.com/bphoto/5ijxMs8NmErAIAY2B10yTw/o.jpg", "is_closed": false, "url": "https://www.yelp.com/biz/little-star-pizza-valencia-san-francisco-2?adjust_creative=A1HR7D-cXuiUdMXadx5pVQ&utm_campaign=yelp_api_v3&utm_medium=api_v3_business_search&utm_source=A1HR7D-cXuiUdMXadx5pVQ", "review_count": 1896, "categories": [{"alias": "pizza", "title": "Pizza"}, {"alias": "salad", "title": "Salad"}], "rating": 4.0, "coordinates": {"latitude": 37.7662598870271, "longitude": -122.422120973633}, "transactions": ["pickup", "restaurant_reservation"], "price": "$$", "location": {"address1": "400 Valencia St", "address2": null, "address3": "", "city": "San Francisco", "zip_code": "94103", "country": "US", "state": "CA", "display_address": ["400 Valencia St", "San Francisco, CA 94103"]}, "phone": "+14155517827", "display_phone": "(415) 551-7827", "distance": 1393.272636272606}, {"id": "cha-cha-cha-san-francisco", "name": "Cha Cha Cha", "image_url": "https://s3-media3.fl.yelpcdn.com/bphoto/p_jxD20EhVbhGyxF_FhKdQ/o.jpg", "is_closed": false, "url": "https://www.yelp.com/biz/cha-cha-cha-san-francisco?adjust_creative=A1HR7D-cXuiUdMXadx5pVQ&utm_campaign=yelp_api_v3&utm_medium=api_v3_business_search&utm_source=A1HR7D-cXuiUdMXadx5pVQ", "review_count": 1846, "categories": [{"alias": "bars", "title": "Bars"}, {"alias": "caribbean", "title": "Caribbean"}, {"alias": "tapasmallplates", "title": "Tapas/Small Plates"}], "rating": 3.5, "coordinates": {"latitude": 37.7597100560449, "longitude": -122.418911883739}, "transactions": ["restaurant_reservation"], "price": "$$", "location": {"address1": "2327 Mission St", "address2": "", "address3": "", "city": "San Francisco", "zip_code": "94110", "country": "US", "state": "CA", "display_address": ["2327 Mission St", "San Francisco, CA 94110"]}, "phone": "+14158241502", "display_phone": "(415) 824-1502", "distance": 1547.1578355421218}, {"id": "hong-kong-lounge-san-francisco", "name": "Hong Kong Lounge", "image_url": "https://s3-media2.fl.yelpcdn.com/bphoto/GLRXV6ZcT59ZjdMu36pUng/o.jpg", "is_closed": false, "url": "https://www.yelp.com/biz/hong-kong-lounge-san-francisco?adjust_creative=A1HR7D-cXuiUdMXadx5pVQ&utm_campaign=yelp_api_v3&utm_medium=api_v3_business_search&utm_source=A1HR7D-cXuiUdMXadx5pVQ", "review_count": 1443, "categories": [{"alias": "dimsum", "title": "Dim Sum"}, {"alias": "seafood", "title": "Seafood"}, {"alias": "cantonese", "title": "Cantonese"}], "rating": 3.5, "coordinates": {"latitude": 37.780671, "longitude": -122.476619}, "transactions": ["pickup"], "price": "$$", "location": {"address1": "5322 Geary Blvd", "address2": "", "address3": "", "city": "San Francisco", "zip_code": "94121", "country": "US", "state": "CA", "display_address": ["5322 Geary Blvd", "San Francisco, CA 94121"]}, "phone": "+14156688836", "display_phone": "(415) 668-8836", "distance": 4159.440145595908}, {"id": "genki-ramen-san-francisco", "name": "Genki Ramen", "image_url": "https://s3-media2.fl.yelpcdn.com/bphoto/VGaBLR-TvDbetlioi2LAFw/o.jpg", "is_closed": false, "url": "https://www.yelp.com/biz/genki-ramen-san-francisco?adjust_creative=A1HR7D-cXuiUdMXadx5pVQ&utm_campaign=yelp_api_v3&utm_medium=api_v3_business_search&utm_source=A1HR7D-cXuiUdMXadx5pVQ", "review_count": 1405, "categories": [{"alias": "tapasmallplates", "title": "Tapas/Small Plates"}, {"alias": "ramen", "title": "Ramen"}], "rating": 3.5, "coordinates": {"latitude": 37.781436920166, "longitude": -122.461868286133}, "transactions": ["delivery", "pickup"], "price": "$$", "location": {"address1": "3944 Geary Blvd", "address2": "", "address3": "", "city": "San Francisco", "zip_code": "94118", "country": "US", "state": "CA", "display_address": ["3944 Geary Blvd", "San Francisco, CA 94118"]}, "phone": "+14157522663", "display_phone": "(415) 752-2663", "distance": 3196.12572110524}, {"id": "perbacco-san-francisco", "name": "Perbacco", "image_url": "https://s3-media3.fl.yelpcdn.com/bphoto/4A70I2FfagmfcflkgKm0BQ/o.jpg", "is_closed": false, "url": "https://www.yelp.com/biz/perbacco-san-francisco?adjust_creative=A1HR7D-cXuiUdMXadx5pVQ&utm_campaign=yelp_api_v3&utm_medium=api_v3_business_search&utm_source=A1HR7D-cXuiUdMXadx5pVQ", "review_count": 1866, "categories": [{"alias": "italian", "title": "Italian"}, {"alias": "bars", "title": "Bars"}], "rating": 4.0, "coordinates": {"latitude": 37.7934543812786, "longitude": -122.399336635582}, "transactions": ["restaurant_reservation"], "price": "$$$", "location": {"address1": "230 California St", "address2": null, "address3": "", "city": "San Francisco", "zip_code": "94111", "country": "US", "state": "CA", "display_address": ["230 California St", "San Francisco, CA 94111"]}, "phone": "+14159550663", "display_phone": "(415) 955-0663", "distance": 4872.566157511252}, {"id": "walzwerk-san-francisco", "name": "Walzwerk", "image_url": "https://s3-media1.fl.yelpcdn.com/bphoto/Rbr-EJhKltQApGdfVeBNgg/o.jpg", "is_closed": false, "url": "https://www.yelp.com/biz/walzwerk-san-francisco?adjust_creative=A1HR7D-cXuiUdMXadx5pVQ&utm_campaign=yelp_api_v3&utm_medium=api_v3_business_search&utm_source=A1HR7D-cXuiUdMXadx5pVQ", "review_count": 924, "categories": [{"alias": "german", "title": "German"}], "rating": 4.0, "coordinates": {"latitude": 37.7672658, "longitude": -122.4175768}, "transactions": [], "price": "$$", "location": {"address1": "381 S Van Ness Ave", "address2": "", "address3": "", "city": "San Francisco", "zip_code": "94103", "country": "US", "state": "CA", "display_address": ["381 S Van Ness Ave", "San Francisco, CA 94103"]}, "phone": "+14155517181", "display_phone": "(415) 551-7181", "distance": 1803.517536257114}, {"id": "bobos-san-francisco-14", "name": "Bobo's", "image_url": "https://s3-media1.fl.yelpcdn.com/bphoto/rJmBtXJnWFOj2fOYZ2aU-A/o.jpg", "is_closed": false, "url": "https://www.yelp.com/biz/bobos-san-francisco-14?adjust_creative=A1HR7D-cXuiUdMXadx5pVQ&utm_campaign=yelp_api_v3&utm_medium=api_v3_business_search&utm_source=A1HR7D-cXuiUdMXadx5pVQ", "review_count": 1843, "categories": [{"alias": "steak", "title": "Steakhouses"}, {"alias": "seafood", "title": "Seafood"}], "rating": 4.0, "coordinates": {"latitude": 37.8014088795149, "longitude": -122.425744103705}, "transactions": ["restaurant_reservation"], "price": "$$$", "location": {"address1": "1450 Lombard St", "address2": "", "address3": "", "city": "San Francisco", "zip_code": "94123", "country": "US", "state": "CA", "display_address": ["1450 Lombard St", "San Francisco, CA 94123"]}, "phone": "+14154418880", "display_phone": "(415) 441-8880", "distance": 4601.607365679211}, {"id": "yakiniq-san-francisco-4", "name": "Yakiniq", "image_url": "https://s3-media3.fl.yelpcdn.com/bphoto/JPepf63Hu1jMtS7aEZpTgA/o.jpg", "is_closed": false, "url": "https://www.yelp.com/biz/yakiniq-san-francisco-4?adjust_creative=A1HR7D-cXuiUdMXadx5pVQ&utm_campaign=yelp_api_v3&utm_medium=api_v3_business_search&utm_source=A1HR7D-cXuiUdMXadx5pVQ", "review_count": 1170, "categories": [{"alias": "korean", "title": "Korean"}, {"alias": "bbq", "title": "Barbeque"}], "rating": 3.0, "coordinates": {"latitude": 37.7859306335449, "longitude": -122.428863525391}, "transactions": [], "price": "$$", "location": {"address1": "1640 Post St", "address2": "Fl 2", "address3": "", "city": "San Francisco", "zip_code": "94115", "country": "US", "state": "CA", "display_address": ["1640 Post St", "Fl 2", "San Francisco, CA 94115"]}, "phone": "+14154419292", "display_phone": "(415) 441-9292", "distance": 2863.13761381303}, {"id": "chapeau-san-francisco", "name": "Chapeau", "image_url": "https://s3-media1.fl.yelpcdn.com/bphoto/qAdGIt3Gd0eTXwW0WjZamw/o.jpg", "is_closed": false, "url": "https://www.yelp.com/biz/chapeau-san-francisco?adjust_creative=A1HR7D-cXuiUdMXadx5pVQ&utm_campaign=yelp_api_v3&utm_medium=api_v3_business_search&utm_source=A1HR7D-cXuiUdMXadx5pVQ", "review_count": 2508, "categories": [{"alias": "french", "title": "French"}, {"alias": "wine_bars", "title": "Wine Bars"}, {"alias": "vegetarian", "title": "Vegetarian"}], "rating": 4.5, "coordinates": {"latitude": 37.78327, "longitude": -122.46066}, "transactions": ["restaurant_reservation"], "price": "$$$", "location": {"address1": "126 Clement St", "address2": "", "address3": "", "city": "San Francisco", "zip_code": "94118", "country": "US", "state": "CA", "display_address": ["126 Clement St", "San Francisco, CA 94118"]}, "phone": "+14157509787", "display_phone": "(415) 750-9787", "distance": 3284.4865257585398}, {"id": "italian-homemade-company-san-francisco", "name": "Italian Homemade Company", "image_url": "https://s3-media1.fl.yelpcdn.com/bphoto/PHnJ_tB5HjE_bWUW6j2KrQ/o.jpg", "is_closed": false, "url": "https://www.yelp.com/biz/italian-homemade-company-san-francisco?adjust_creative=A1HR7D-cXuiUdMXadx5pVQ&utm_campaign=yelp_api_v3&utm_medium=api_v3_business_search&utm_source=A1HR7D-cXuiUdMXadx5pVQ", "review_count": 915, "categories": [{"alias": "grocery", "title": "Grocery"}, {"alias": "italian", "title": "Italian"}], "rating": 4.5, "coordinates": {"latitude": 37.801752, "longitude": -122.411851}, "transactions": ["delivery", "pickup"], "price": "$$", "location": {"address1": "716 Columbus Ave", "address2": "", "address3": "", "city": "San Francisco", "zip_code": "94133", "country": "US", "state": "CA", "display_address": ["716 Columbus Ave", "San Francisco, CA 94133"]}, "phone": "+14157128874", "display_phone": "(415) 712-8874", "distance": 5030.673143874524}, {"id": "azucar-lounge-san-francisco-4", "name": "Azucar Lounge", "image_url": "https://s3-media2.fl.yelpcdn.com/bphoto/19xr4p3lb4_JoDtNyIeNjQ/o.jpg", "is_closed": false, "url": "https://www.yelp.com/biz/azucar-lounge-san-francisco-4?adjust_creative=A1HR7D-cXuiUdMXadx5pVQ&utm_campaign=yelp_api_v3&utm_medium=api_v3_business_search&utm_source=A1HR7D-cXuiUdMXadx5pVQ", "review_count": 563, "categories": [{"alias": "lounges", "title": "Lounges"}, {"alias": "mexican", "title": "Mexican"}, {"alias": "venues", "title": "Venues & Event Spaces"}], "rating": 4.0, "coordinates": {"latitude": 37.77392, "longitude": -122.411618}, "transactions": ["restaurant_reservation"], "price": "$$", "location": {"address1": "299 9th St", "address2": "", "address3": "", "city": "San Francisco", "zip_code": "94103", "country": "US", "state": "CA", "display_address": ["299 9th St", "San Francisco, CA 94103"]}, "phone": "+14152552982", "display_phone": "(415) 255-2982", "distance": 2619.0472545904}, {"id": "contigo-san-francisco-2", "name": "Contigo", "image_url": "https://s3-media2.fl.yelpcdn.com/bphoto/ICDz424-bW-CjrAWwLy7ew/o.jpg", "is_closed": false, "url": "https://www.yelp.com/biz/contigo-san-francisco-2?adjust_creative=A1HR7D-cXuiUdMXadx5pVQ&utm_campaign=yelp_api_v3&utm_medium=api_v3_business_search&utm_source=A1HR7D-cXuiUdMXadx5pVQ", "review_count": 798, "categories": [{"alias": "spanish", "title": "Spanish"}, {"alias": "tapas", "title": "Tapas Bars"}], "rating": 4.0, "coordinates": {"latitude": 37.7509, "longitude": -122.43424}, "transactions": [], "price": "$$$", "location": {"address1": "1320 Castro St", "address2": "", "address3": "", "city": "San Francisco", "zip_code": "94114", "country": "US", "state": "CA", "display_address": ["1320 Castro St", "San Francisco, CA 94114"]}, "phone": "+14152850250", "display_phone": "(415) 285-0250", "distance": 1127.693347921878}, {"id": "um-ma-son-san-francisco", "name": "Um Ma Son", "image_url": "https://s3-media4.fl.yelpcdn.com/bphoto/SPiHOmtq2vSRkBOQVk90Yg/o.jpg", "is_closed": false, "url": "https://www.yelp.com/biz/um-ma-son-san-francisco?adjust_creative=A1HR7D-cXuiUdMXadx5pVQ&utm_campaign=yelp_api_v3&utm_medium=api_v3_business_search&utm_source=A1HR7D-cXuiUdMXadx5pVQ", "review_count": 345, "categories": [{"alias": "korean", "title": "Korean"}], "rating": 4.0, "coordinates": {"latitude": 37.78047, "longitude": -122.48232}, "transactions": [], "price": "$$", "location": {"address1": "5850 Geary Blvd", "address2": null, "address3": "", "city": "San Francisco", "zip_code": "94121", "country": "US", "state": "CA", "display_address": ["5850 Geary Blvd", "San Francisco, CA 94121"]}, "phone": "+14158318662", "display_phone": "(415) 831-8662", "distance": 4585.345247784434}, {"id": "bluestem-brasserie-san-francisco", "name": "Bluestem Brasserie", "image_url": "https://s3-media2.fl.yelpcdn.com/bphoto/maPFahxo1lZPeWLEBANSqQ/o.jpg", "is_closed": false, "url": "https://www.yelp.com/biz/bluestem-brasserie-san-francisco?adjust_creative=A1HR7D-cXuiUdMXadx5pVQ&utm_campaign=yelp_api_v3&utm_medium=api_v3_business_search&utm_source=A1HR7D-cXuiUdMXadx5pVQ", "review_count": 1480, "categories": [{"alias": "brasseries", "title": "Brasseries"}], "rating": 3.5, "coordinates": {"latitude": 37.785985, "longitude": -122.404921}, "transactions": [], "price": "$$$", "location": {"address1": "One Yerba Buena Ln", "address2": "", "address3": "", "city": "San Francisco", "zip_code": "94103", "country": "US", "state": "CA", "display_address": ["One Yerba Buena Ln", "San Francisco, CA 94103"]}, "phone": "+14155471111", "display_phone": "(415) 547-1111", "distance": 3931.7529514927414}, {"id": "eureka-restaurant-and-lounge-san-francisco", "name": "Eureka Restaurant & Lounge", "image_url": "https://s3-media2.fl.yelpcdn.com/bphoto/_B64-dUDl5fnPGNTNppBUw/o.jpg", "is_closed": false, "url": "https://www.yelp.com/biz/eureka-restaurant-and-lounge-san-francisco?adjust_creative=A1HR7D-cXuiUdMXadx5pVQ&utm_campaign=yelp_api_v3&utm_medium=api_v3_business_search&utm_source=A1HR7D-cXuiUdMXadx5pVQ", "review_count": 564, "categories": [{"alias": "newamerican", "title": "American (New)"}, {"alias": "southern", "title": "Southern"}], "rating": 4.0, "coordinates": {"latitude": 37.76074, "longitude": -122.43419}, "transactions": ["restaurant_reservation"], "price": "$$", "location": {"address1": "4063 18th St", "address2": null, "address3": "", "city": "San Francisco", "zip_code": "94114", "country": "US", "state": "CA", "display_address": ["4063 18th St", "San Francisco, CA 94114"]}, "phone": "+14154316000", "display_phone": "(415) 431-6000", "distance": 197.452359853288}, {"id": "kin-khao-san-francisco-2", "name": "Kin Khao", "image_url": "https://s3-media2.fl.yelpcdn.com/bphoto/tRONEA8uY-QlhX8OHPWvdA/o.jpg", "is_closed": false, "url": "https://www.yelp.com/biz/kin-khao-san-francisco-2?adjust_creative=A1HR7D-cXuiUdMXadx5pVQ&utm_campaign=yelp_api_v3&utm_medium=api_v3_business_search&utm_source=A1HR7D-cXuiUdMXadx5pVQ", "review_count": 1322, "categories": [{"alias": "thai", "title": "Thai"}], "rating": 4.0, "coordinates": {"latitude": 37.7852278803726, "longitude": -122.409348137336}, "transactions": ["restaurant_reservation"], "price": "$$", "location": {"address1": "55 Cyril Magnin St", "address2": null, "address3": "", "city": "San Francisco", "zip_code": "94102", "country": "US", "state": "CA", "display_address": ["55 Cyril Magnin St", "San Francisco, CA 94102"]}, "phone": "+14153627456", "display_phone": "(415) 362-7456", "distance": 3604.3265573175777}, {"id": "canela-bistro-and-wine-bar-san-francisco", "name": "Canela Bistro & Wine Bar", "image_url": "https://s3-media1.fl.yelpcdn.com/bphoto/oUTdGAx2ewD30pZHjS5HYQ/o.jpg", "is_closed": false, "url": "https://www.yelp.com/biz/canela-bistro-and-wine-bar-san-francisco?adjust_creative=A1HR7D-cXuiUdMXadx5pVQ&utm_campaign=yelp_api_v3&utm_medium=api_v3_business_search&utm_source=A1HR7D-cXuiUdMXadx5pVQ", "review_count": 534, "categories": [{"alias": "spanish", "title": "Spanish"}, {"alias": "tapas", "title": "Tapas Bars"}, {"alias": "wine_bars", "title": "Wine Bars"}], "rating": 4.0, "coordinates": {"latitude": 37.764878, "longitude": -122.432438}, "transactions": ["pickup"], "price": "$$", "location": {"address1": "2272 Market St", "address2": null, "address3": "", "city": "San Francisco", "zip_code": "94114", "country": "US", "state": "CA", "display_address": ["2272 Market St", "San Francisco, CA 94114"]}, "phone": "+14155523000", "display_phone": "(415) 552-3000", "distance": 565.616199376438}, {"id": "lime-tree-southeast-asian-kitchen-san-francisco", "name": "Lime Tree Southeast Asian Kitchen", "image_url": "https://s3-media1.fl.yelpcdn.com/bphoto/NKV6M2v8uTY3ZuvHB85-vA/o.jpg", "is_closed": false, "url": "https://www.yelp.com/biz/lime-tree-southeast-asian-kitchen-san-francisco?adjust_creative=A1HR7D-cXuiUdMXadx5pVQ&utm_campaign=yelp_api_v3&utm_medium=api_v3_business_search&utm_source=A1HR7D-cXuiUdMXadx5pVQ", "review_count": 1389, "categories": [{"alias": "singaporean", "title": "Singaporean"}, {"alias": "malaysian", "title": "Malaysian"}, {"alias": "indonesian", "title": "Indonesian"}], "rating": 4.0, "coordinates": {"latitude": 37.764337, "longitude": -122.462736}, "transactions": [], "price": "$", "location": {"address1": "450 Irving St", "address2": "", "address3": "", "city": "San Francisco", "zip_code": "94122", "country": "US", "state": "CA", "display_address": ["450 Irving St", "San Francisco, CA 94122"]}, "phone": "+14156651415", "display_phone": "(415) 665-1415", "distance": 2342.33666067694}, {"id": "mamas-on-washington-square-san-francisco", "name": "Mama's On Washington Square", "image_url": "https://s3-media2.fl.yelpcdn.com/bphoto/ETJbHf1tlPkn5V-EKjsmLw/o.jpg", "is_closed": false, "url": "https://www.yelp.com/biz/mamas-on-washington-square-san-francisco?adjust_creative=A1HR7D-cXuiUdMXadx5pVQ&utm_campaign=yelp_api_v3&utm_medium=api_v3_business_search&utm_source=A1HR7D-cXuiUdMXadx5pVQ", "review_count": 3772, "categories": [{"alias": "breakfast_brunch", "title": "Breakfast & Brunch"}], "rating": 4.0, "coordinates": {"latitude": 37.801606, "longitude": -122.409599}, "transactions": ["restaurant_reservation"], "price": "$$", "location": {"address1": "1701 Stockton St", "address2": "", "address3": "", "city": "San Francisco", "zip_code": "94133", "country": "US", "state": "CA", "display_address": ["1701 Stockton St", "San Francisco, CA 94133"]}, "phone": "+14153626421", "display_phone": "(415) 362-6421", "distance": 5104.433222965072}, {"id": "izakaya-kou-san-francisco", "name": "Izakaya KOU", "image_url": "https://s3-media1.fl.yelpcdn.com/bphoto/a_VbSN_CoGYRiHCECSGpeQ/o.jpg", "is_closed": false, "url": "https://www.yelp.com/biz/izakaya-kou-san-francisco?adjust_creative=A1HR7D-cXuiUdMXadx5pVQ&utm_campaign=yelp_api_v3&utm_medium=api_v3_business_search&utm_source=A1HR7D-cXuiUdMXadx5pVQ", "review_count": 569, "categories": [{"alias": "tapasmallplates", "title": "Tapas/Small Plates"}, {"alias": "lounges", "title": "Lounges"}, {"alias": "izakaya", "title": "Izakaya"}], "rating": 4.0, "coordinates": {"latitude": 37.7840954508032, "longitude": -122.432791119359}, "transactions": ["restaurant_reservation"], "price": "$$", "location": {"address1": "1560 Fillmore St", "address2": null, "address3": "", "city": "San Francisco", "zip_code": "94115", "country": "US", "state": "CA", "display_address": ["1560 Fillmore St", "San Francisco, CA 94115"]}, "phone": "+14154419294", "display_phone": "(415) 441-9294", "distance": 2599.221699213736}, {"id": "mandalay-san-francisco", "name": "Mandalay", "image_url": "https://s3-media3.fl.yelpcdn.com/bphoto/q_L7VpQUya-f-191ZMcnLg/o.jpg", "is_closed": false, "url": "https://www.yelp.com/biz/mandalay-san-francisco?adjust_creative=A1HR7D-cXuiUdMXadx5pVQ&utm_campaign=yelp_api_v3&utm_medium=api_v3_business_search&utm_source=A1HR7D-cXuiUdMXadx5pVQ", "review_count": 1889, "categories": [{"alias": "burmese", "title": "Burmese"}], "rating": 4.0, "coordinates": {"latitude": 37.7851484, "longitude": -122.4643918}, "transactions": ["restaurant_reservation"], "price": "$$", "location": {"address1": "4348 California St", "address2": "", "address3": "", "city": "San Francisco", "zip_code": "94118", "country": "US", "state": "CA", "display_address": ["4348 California St", "San Francisco, CA 94118"]}, "phone": "+14153863896", "display_phone": "(415) 386-3896", "distance": 3651.745297088592}, {"id": "destino-san-francisco-4", "name": "Destino", "image_url": "https://s3-media3.fl.yelpcdn.com/bphoto/Mt4gjCGYwrtshTTHPRfLzw/o.jpg", "is_closed": false, "url": "https://www.yelp.com/biz/destino-san-francisco-4?adjust_creative=A1HR7D-cXuiUdMXadx5pVQ&utm_campaign=yelp_api_v3&utm_medium=api_v3_business_search&utm_source=A1HR7D-cXuiUdMXadx5pVQ", "review_count": 1152, "categories": [{"alias": "latin", "title": "Latin American"}, {"alias": "cocktailbars", "title": "Cocktail Bars"}, {"alias": "tapasmallplates", "title": "Tapas/Small Plates"}], "rating": 4.0, "coordinates": {"latitude": 37.7712546, "longitude": -122.4237757}, "transactions": [], "price": "$$", "location": {"address1": "1815 Market St", "address2": "", "address3": "", "city": "San Francisco", "zip_code": "94103", "country": "US", "state": "CA", "display_address": ["1815 Market St", "San Francisco, CA 94103"]}, "phone": "+14155524451", "display_phone": "(415) 552-4451", "distance": 1602.0184200019319}, {"id": "marnee-thai-san-francisco-2", "name": "Marnee Thai", "image_url": "https://s3-media1.fl.yelpcdn.com/bphoto/gdeX343-yYSVXbH1za3E-A/o.jpg", "is_closed": false, "url": "https://www.yelp.com/biz/marnee-thai-san-francisco-2?adjust_creative=A1HR7D-cXuiUdMXadx5pVQ&utm_campaign=yelp_api_v3&utm_medium=api_v3_business_search&utm_source=A1HR7D-cXuiUdMXadx5pVQ", "review_count": 1489, "categories": [{"alias": "thai", "title": "Thai"}], "rating": 4.0, "coordinates": {"latitude": 37.76513, "longitude": -122.46671}, "transactions": ["delivery", "pickup", "restaurant_reservation"], "price": "$$", "location": {"address1": "1243 9th Ave", "address2": "", "address3": "", "city": "San Francisco", "zip_code": "94122", "country": "US", "state": "CA", "display_address": ["1243 9th Ave", "San Francisco, CA 94122"]}, "phone": "+14157319999", "display_phone": "(415) 731-9999", "distance": 2701.631864556834}, {"id": "barbacco-san-francisco", "name": "Barbacco", "image_url": "https://s3-media2.fl.yelpcdn.com/bphoto/W-wbXYKq7555vyTMJozJWQ/o.jpg", "is_closed": false, "url": "https://www.yelp.com/biz/barbacco-san-francisco?adjust_creative=A1HR7D-cXuiUdMXadx5pVQ&utm_campaign=yelp_api_v3&utm_medium=api_v3_business_search&utm_source=A1HR7D-cXuiUdMXadx5pVQ", "review_count": 1452, "categories": [{"alias": "italian", "title": "Italian"}, {"alias": "bars", "title": "Bars"}], "rating": 4.0, "coordinates": {"latitude": 37.7935921194034, "longitude": -122.399338591436}, "transactions": ["pickup", "delivery"], "price": "$$", "location": {"address1": "220 California St", "address2": "", "address3": "", "city": "San Francisco", "zip_code": "94111", "country": "US", "state": "CA", "display_address": ["220 California St", "San Francisco, CA 94111"]}, "phone": "+14159551919", "display_phone": "(415) 955-1919", "distance": 4883.838541519866}, {"id": "thanh-long-san-francisco", "name": "Thanh Long", "image_url": "https://s3-media4.fl.yelpcdn.com/bphoto/ukHLQEd1wnsLjqtRRCs6hw/o.jpg", "is_closed": false, "url": "https://www.yelp.com/biz/thanh-long-san-francisco?adjust_creative=A1HR7D-cXuiUdMXadx5pVQ&utm_campaign=yelp_api_v3&utm_medium=api_v3_business_search&utm_source=A1HR7D-cXuiUdMXadx5pVQ", "review_count": 2214, "categories": [{"alias": "seafood", "title": "Seafood"}, {"alias": "vietnamese", "title": "Vietnamese"}], "rating": 4.0, "coordinates": {"latitude": 37.76017, "longitude": -122.50609}, "transactions": ["restaurant_reservation"], "price": "$$$", "location": {"address1": "4101 Judah St", "address2": "", "address3": "", "city": "San Francisco", "zip_code": "94122", "country": "US", "state": "CA", "display_address": ["4101 Judah St", "San Francisco, CA 94122"]}, "phone": "+14156651146", "display_phone": "(415) 665-1146", "distance": 6122.811241787982}], "total": 4900, "region": {"center": {"longitude": -122.4364471436, "latitude": 37.7608993898}}}