{"businesses": [{"id": "ssisso-san-francisco", "name": "Ssisso", "image_url": "https://s3-media2.fl.yelpcdn.com/bphoto/raW-TxfLecjtuUdEK3tpdg/o.jpg", "is_closed": false, "url": "https://www.yelp.com/biz/ssisso-san-francisco?adjust_creative=A1HR7D-cXuiUdMXadx5pVQ&utm_campaign=yelp_api_v3&utm_medium=api_v3_business_search&utm_source=A1HR7D-cXuiUdMXadx5pVQ", "review_count": 574, "categories": [{"alias": "korean", "title": "Korean"}], "rating": 4.0, "coordinates": {"latitude": 37.7858188325982, "longitude": -122.430276661377}, "transactions": ["pickup", "restaurant_reservation", "delivery"], "price": "$$", "location": {"address1": "1700A Post St", "address2": "", "address3": "", "city": "San Francisco", "zip_code": "94115", "country": "US", "state": "CA", "display_address": ["1700A Post St", "San Francisco, CA 94115"]}, "phone": "+14154411522", "display_phone": "(415) 441-1522", "distance": 2823.488994157088}, {"id": "nopalito-san-francisco", "name": "Nopalito", "image_url": "https://s3-media4.fl.yelpcdn.com/bphoto/MNfC65dp-OiZiSce7j3yAw/o.jpg", "is_closed": false, "url": "https://www.yelp.com/biz/nopalito-san-francisco?adjust_creative=A1HR7D-cXuiUdMXadx5pVQ&utm_campaign=yelp_api_v3&utm_medium=api_v3_business_search&utm_source=A1HR7D-cXuiUdMXadx5pVQ", "review_count": 1669, "categories": [{"alias": "mexican", "title": "Mexican"}, {"alias": "gluten_free", "title": "Gluten-Free"}], "rating": 4.0, "coordinates": {"latitude": 37.77343530099, "longitude": -122.438993048014}, "transactions": [], "price": "$$", "location": {"address1": "306 Broderick St", "address2": "", "address3": "", "city": "San Francisco", "zip_code": "94117", "country": "US", "state": "CA", "display_address": ["306 Broderick St", "San Francisco, CA 94117"]}, "phone": "+14155353969", "display_phone": "(415) 535-3969", "distance": 1411.7774969171119}, {"id": "huli-huli-hawaiian-grill-san-francisco-2", "name": "Huli Huli Hawaiian Grill", "image_url": "https://s3-media1.fl.yelpcdn.com/bphoto/frxuD22cAtPE_Yn_LD55mA/o.jpg", "is_closed": false, "url": "https://www.yelp.com/biz/huli-huli-hawaiian-grill-san-francisco-2?adjust_creative=A1HR7D-cXuiUdMXadx5pVQ&utm_campaign=yelp_api_v3&utm_medium=api_v3_business_search&utm_source=A1HR7D-cXuiUdMXadx5pVQ", "review_count": 208, "categories": [{"alias": "hawaiian", "title": "Hawaiian"}, {"alias": "bbq", "title": "Barbeque"}, {"alias": "shavedice", "title": "Shaved Ice"}], "rating": 4.5, "coordinates": {"latitude": 37.74027, "longitude": -122.38914}, "transactions": ["pickup"], "price": "$", "location": {"address1": "4100 3rd St", "address2": null, "address3": "", "city": "San Francisco", "zip_code": "94124", "country": "US", "state": "CA", "display_address": ["4100 3rd St", "San Francisco, CA 94124"]}, "phone": "+14159701990", "display_phone": "(415) 970-1990", "distance": 4749.854004076407}, {"id": "saucy-asian-san-francisco", "name": "Saucy Asian", "image_url": "https://s3-media1.fl.yelpcdn.com/bphoto/Yp5yUb1AfTdWoq90B3vYMQ/o.jpg", "is_closed": false, "url": "https://www.yelp.com/biz/saucy-asian-san-francisco?adjust_creative=A1HR7D-cXuiUdMXadx5pVQ&utm_campaign=yelp_api_v3&utm_medium=api_v3_business_search&utm_source=A1HR7D-cXuiUdMXadx5pVQ", "review_count": 171, "categories": [{"alias": "korean", "title": "Korean"}, {"alias": "asianfusion", "title": "Asian Fusion"}], "rating": 4.5, "coordinates": {"latitude": 37.7627051739464, "longitude": -122.430875517226}, "transactions": ["pickup"], "price": "$$", "location": {"address1": "3801 17th St", "address2": "", "address3": null, "city": "San Francisco", "zip_code": "94114", "country": "US", "state": "CA", "display_address": ["3801 17th St", "San Francisco, CA 94114"]}, "phone": "+14158345555", "display_phone": "(415) 834-5555", "distance": 524.287505847882}, {"id": "khamsa-san-francisco", "name": "Khamsa", "image_url": "https://s3-media2.fl.yelpcdn.com/bphoto/wlzExEmFObbw5qZly257jQ/o.jpg", "is_closed": false, "url": "https://www.yelp.com/biz/khamsa-san-francisco?adjust_creative=A1HR7D-cXuiUdMXadx5pVQ&utm_campaign=yelp_api_v3&utm_medium=api_v3_business_search&utm_source=A1HR7D-cXuiUdMXadx5pVQ", "review_count": 82, "categories": [{"alias": "moroccan", "title": "Moroccan"}], "rating": 4.0, "coordinates": {"latitude": 37.76654, "longitude": -122.41798}, "transactions": ["restaurant_reservation", "pickup"], "price": "$$", "location": {"address1": "1503 15th St", "address2": "", "address3": null, "city": "San Francisco", "zip_code": "94103", "country": "US", "state": "CA", "display_address": ["1503 15th St", "San Francisco, CA 94103"]}, "phone": "+16282331503", "display_phone": "(628) 233-1503", "distance": 1739.6414696726717}, {"id": "stones-throw-san-francisco-2", "name": "Stones Throw", "image_url": "https://s3-media2.fl.yelpcdn.com/bphoto/EB7CsMTKmX9D2tTzuu3bdQ/o.jpg", "is_closed": false, "url": "https://www.yelp.com/biz/stones-throw-san-francisco-2?adjust_creative=A1HR7D-cXuiUdMXadx5pVQ&utm_campaign=yelp_api_v3&utm_medium=api_v3_business_search&utm_source=A1HR7D-cXuiUdMXadx5pVQ", "review_count": 791, "categories": [{"alias": "newamerican", "title": "American (New)"}], "rating": 4.5, "coordinates": {"latitude": 37.7981224060059, "longitude": -122.418571472168}, "transactions": [], "price": "$$$", "location": {"address1": "1896 Hyde St", "address2": null, "address3": "", "city": "San Francisco", "zip_code": "94109", "country": "US", "state": "CA", "display_address": ["1896 Hyde St", "San Francisco, CA 94109"]}, "phone": "+14157962901", "display_phone": "(415) 796-2901", "distance": 4426.356518197354}, {"id": "mac-daddy-san-francisco", "name": "Mac Daddy", "image_url": "https://s3-media2.fl.yelpcdn.com/bphoto/02eLVtQ6PhXKOUW6XN9khg/o.jpg", "is_closed": false, "url": "https://www.yelp.com/biz/mac-daddy-san-francisco?adjust_creative=A1HR7D-cXuiUdMXadx5pVQ&utm_campaign=yelp_api_v3&utm_medium=api_v3_business_search&utm_source=A1HR7D-cXuiUdMXadx5pVQ", "review_count": 337, "categories": [{"alias": "tradamerican", "title": "American (Traditional)"}, {"alias": "salad", "title": "Salad"}, {"alias": "soup", "title": "Soup"}], "rating": 4.0, "coordinates": {"latitude": 37.76234, "longitude": -122.39716}, "transactions": ["pickup", "delivery"], "price": "$$", "location": {"address1": "1453 18th St", "address2": "", "address3": "", "city": "San Francisco", "zip_code": "94107", "country": "US", "state": "CA", "display_address": ["1453 18th St", "San Francisco, CA 94107"]}, "phone": "+14158726670", "display_phone": "(415) 872-6670", "distance": 3465.4724140457174}, {"id": "woodhouse-fish-company-san-francisco-3", "name": "Woodhouse Fish Company", "image_url": "https://s3-media1.fl.yelpcdn.com/bphoto/VW2sQJjK5czsG2ZPL18_zQ/o.jpg", "is_closed": false, "url": "https://www.yelp.com/biz/woodhouse-fish-company-san-francisco-3?adjust_creative=A1HR7D-cXuiUdMXadx5pVQ&utm_campaign=yelp_api_v3&utm_medium=api_v3_business_search&utm_source=A1HR7D-cXuiUdMXadx5pVQ", "review_count": 1978, "categories": [{"alias": "seafood", "title": "Seafood"}, {"alias": "newamerican", "title": "American (New)"}], "rating": 4.0, "coordinates": {"latitude": 37.78742, "longitude": -122.43327}, "transactions": [], "price": "$$", "location": {"address1": "1914 Fillmore St", "address2": "", "address3": "", "city": "San Francisco", "zip_code": "94115", "country": "US", "state": "CA", "display_address": ["1914 Fillmore St", "San Francisco, CA 94115"]}, "phone": "+14154372722", "display_phone": "(415) 437-2722", "distance": 2966.6141643721458}, {"id": "delfina-san-francisco", "name": "Delfina", "image_url": "https://s3-media2.fl.yelpcdn.com/bphoto/0UbRqzsQZbGVj2QdCeb4cg/o.jpg", "is_closed": false, "url": "https://www.yelp.com/biz/delfina-san-francisco?adjust_creative=A1HR7D-cXuiUdMXadx5pVQ&utm_campaign=yelp_api_v3&utm_medium=api_v3_business_search&utm_source=A1HR7D-cXuiUdMXadx5pVQ", "review_count": 1908, "categories": [{"alias": "italian", "title": "Italian"}, {"alias": "pizza", "title": "Pizza"}, {"alias": "bars", "title": "Bars"}], "rating": 4.0, "coordinates": {"latitude": 37.76131, "longitude": -122.42431}, "transactions": ["restaurant_reservation"], "price": "$$$", "location": {"address1": "3621 18th St", "address2": "", "address3": "", "city": "San Francisco", "zip_code": "94110", "country": "US", "state": "CA", "display_address": ["3621 18th St", "San Francisco, CA 94110"]}, "phone": "+14155524055", "display_phone": "(415) 552-4055", "distance": 1062.2824833912919}, {"id": "lers-ros-san-francisco-2", "name": "Lers Ros", "image_url": "https://s3-media4.fl.yelpcdn.com/bphoto/13Nc-oeTitjbxTMd55ogcQ/o.jpg", "is_closed": false, "url": "https://www.yelp.com/biz/lers-ros-san-francisco-2?adjust_creative=A1HR7D-cXuiUdMXadx5pVQ&utm_campaign=yelp_api_v3&utm_medium=api_v3_business_search&utm_source=A1HR7D-cXuiUdMXadx5pVQ", "review_count": 2007, "categories": [{"alias": "thai", "title": "Thai"}, {"alias": "bars", "title": "Bars"}], "rating": 4.0, "coordinates": {"latitude": 37.784703, "longitude": -122.417566}, "transactions": ["delivery"], "price": "$$", "location": {"address1": "730 Larkin St", "address2": "", "address3": "", "city": "San Francisco", "zip_code": "94109", "country": "US", "state": "CA", "display_address": ["730 Larkin St", "San Francisco, CA 94109"]}, "phone": "+14159316917", "display_phone": "(415) 931-6917", "distance": 3123.4740414654198}, {"id": "el-techo-san-francisco", "name": "El Techo", "image_url": "https://s3-media3.fl.yelpcdn.com/bphoto/fXfH9JxGjOGC5pdxkwyOiQ/o.jpg", "is_closed": false, "url": "https://www.yelp.com/biz/el-techo-san-francisco?adjust_creative=A1HR7D-cXuiUdMXadx5pVQ&utm_campaign=yelp_api_v3&utm_medium=api_v3_business_search&utm_source=A1HR7D-cXuiUdMXadx5pVQ", "review_count": 1325, "categories": [{"alias": "latin", "title": "Latin American"}, {"alias": "cocktailbars", "title": "Cocktail Bars"}], "rating": 4.0, "coordinates": {"latitude": 37.7567312, "longitude": -122.4189169}, "transactions": ["restaurant_reservation"], "price": "$$", "location": {"address1": "2518 Mission St", "address2": "", "address3": "", "city": "San Francisco", "zip_code": "94110", "country": "US", "state": "CA", "display_address": ["2518 Mission St", "San Francisco, CA 94110"]}, "phone": "+14155506970", "display_phone": "(415) 550-6970", "distance": 1609.2727859149}, {"id": "rove-kitchen-san-francisco", "name": "Rove Kitchen", "image_url": "https://s3-media1.fl.yelpcdn.com/bphoto/COB2_0YdYHyX1264bexFLQ/o.jpg", "is_closed": false, "url": "https://www.yelp.com/biz/rove-kitchen-san-francisco?adjust_creative=A1HR7D-cXuiUdMXadx5pVQ&utm_campaign=yelp_api_v3&utm_medium=api_v3_business_search&utm_source=A1HR7D-cXuiUdMXadx5pVQ", "review_count": 473, "categories": [{"alias": "beerbar", "title": "Beer Bar"}, {"alias": "tradamerican", "title": "American (Traditional)"}, {"alias": "desserts", "title": "Desserts"}], "rating": 4.5, "coordinates": {"latitude": 37.7877664572471, "longitude": -122.412939658872}, "transactions": [], "price": "$$", "location": {"address1": "678 Post St", "address2": "", "address3": "", "city": "San Francisco", "zip_code": "94109", "country": "US", "state": "CA", "display_address": ["678 Post St", "San Francisco, CA 94109"]}, "phone": "+14155677466", "display_phone": "(415) 567-7466", "distance": 3632.3330989206534}, {"id": "betty-lous-seafood-and-grill-san-francisco", "name": "Betty Lou's Seafood & Grill", "image_url": "https://s3-media4.fl.yelpcdn.com/bphoto/B0GJ-SfvL0Zxwb-LLn7uhg/o.jpg", "is_closed": false, "url": "https://www.yelp.com/biz/betty-lous-seafood-and-grill-san-francisco?adjust_creative=A1HR7D-cXuiUdMXadx5pVQ&utm_campaign=yelp_api_v3&utm_medium=api_v3_business_search&utm_source=A1HR7D-cXuiUdMXadx5pVQ", "review_count": 253, "categories": [{"alias": "seafood", "title": "Seafood"}], "rating": 4.5, "coordinates": {"latitude": 37.798272477416, "longitude": -122.407057508826}, "transactions": [], "price": "$$", "location": {"address1": "318 Columbus Ave", "address2": "", "address3": null, "city": "San Francisco", "zip_code": "94133", "country": "US", "state": "CA", "display_address": ["318 Columbus Ave", "San Francisco, CA 94133"]}, "phone": "+14157570569", "display_phone": "(415) 757-0569", "distance": 4892.980744202636}, {"id": "\u0101ina-san-francisco-9", "name": "\u0101ina", "image_url": "https://s3-media3.fl.yelpcdn.com/bphoto/f99_ujj6fYXchh6zAJM0YA/o.jpg", "is_closed": false, "url": "https://www.yelp.com/biz/%C4%81ina-san-francisco-9?adjust_creative=A1HR7D-cXuiUdMXadx5pVQ&utm_campaign=yelp_api_v3&utm_medium=api_v3_business_search&utm_source=A1HR7D-cXuiUdMXadx5pVQ", "review_count": 696, "categories": [{"alias": "breakfast_brunch", "title": "Breakfast & Brunch"}, {"alias": "hawaiian", "title": "Hawaiian"}, {"alias": "asianfusion", "title": "Asian Fusion"}], "rating": 4.0, "coordinates": {"latitude": 37.75791, "longitude": -122.39038}, "transactions": [], "price": "$$", "location": {"address1": "900 22nd St", "address2": "", "address3": "", "city": "San Francisco", "zip_code": "94107", "country": "US", "state": "CA", "display_address": ["900 22nd St", "San Francisco, CA 94107"]}, "phone": "+14158143815", "display_phone": "(415) 814-3815", "distance": 4059.9062792833015}, {"id": "hazel-southern-bar-and-kitchen-san-francisco-4", "name": "Hazel Southern Bar & Kitchen", "image_url": "https://s3-media2.fl.yelpcdn.com/bphoto/XkqzgLNf8FOccPZG76QZqQ/o.jpg", "is_closed": false, "url": "https://www.yelp.com/biz/hazel-southern-bar-and-kitchen-san-francisco-4?adjust_creative=A1HR7D-cXuiUdMXadx5pVQ&utm_campaign=yelp_api_v3&utm_medium=api_v3_business_search&utm_source=A1HR7D-cXuiUdMXadx5pVQ", "review_count": 226, "categories": [{"alias": "southern", "title": "Southern"}, {"alias": "whiskeybars", "title": "Whiskey Bars"}, {"alias": "newamerican", "title": "American (New)"}], "rating": 4.0, "coordinates": {"latitude": 37.7759435952097, "longitude": -122.418609213492}, "transactions": ["restaurant_reservation"], "price": "$$", "location": {"address1": "1446 Market St", "address2": null, "address3": "", "city": "San Francisco", "zip_code": "94102", "country": "US", "state": "CA", "display_address": ["1446 Market St", "San Francisco, CA 94102"]}, "phone": "+14158518562", "display_phone": "(415) 851-8562", "distance": 2292.769330017954}, {"id": "souvla-san-francisco", "name": "Souvla", "image_url": "https://s3-media1.fl.yelpcdn.com/bphoto/ZKZ8PfX7ptxX8kwuRP0nww/o.jpg", "is_closed": false, "url": "https://www.yelp.com/biz/souvla-san-francisco?adjust_creative=A1HR7D-cXuiUdMXadx5pVQ&utm_campaign=yelp_api_v3&utm_medium=api_v3_business_search&utm_source=A1HR7D-cXuiUdMXadx5pVQ", "review_count": 914, "categories": [{"alias": "greek", "title": "Greek"}, {"alias": "mediterranean", "title": "Mediterranean"}], "rating": 4.0, "coordinates": {"latitude": 37.7765190062963, "longitude": -122.424959243416}, "transactions": ["restaurant_reservation"], "price": "$$", "location": {"address1": "517 Hayes St", "address2": null, "address3": "", "city": "San Francisco", "zip_code": "94102", "country": "US", "state": "CA", "display_address": ["517 Hayes St", "San Francisco, CA 94102"]}, "phone": "+14154005458", "display_phone": "(415) 400-5458", "distance": 2009.0232459032818}, {"id": "chez-maman-san-francisco-9", "name": "Chez Maman", "image_url": "https://s3-media4.fl.yelpcdn.com/bphoto/gccHe5ofFMpNyh8vmS0VSw/o.jpg", "is_closed": false, "url": "https://www.yelp.com/biz/chez-maman-san-francisco-9?adjust_creative=A1HR7D-cXuiUdMXadx5pVQ&utm_campaign=yelp_api_v3&utm_medium=api_v3_business_search&utm_source=A1HR7D-cXuiUdMXadx5pVQ", "review_count": 1839, "categories": [{"alias": "french", "title": "French"}, {"alias": "burgers", "title": "Burgers"}, {"alias": "creperies", "title": "Creperies"}], "rating": 4.5, "coordinates": {"latitude": 37.7624388911845, "longitude": -122.396692272318}, "transactions": ["delivery", "pickup"], "price": "$$", "location": {"address1": "1401 18th St", "address2": "", "address3": "", "city": "San Francisco", "zip_code": "94107", "country": "US", "state": "CA", "display_address": ["1401 18th St", "San Francisco, CA 94107"]}, "phone": "+14156559542", "display_phone": "(415) 655-9542", "distance": 3498.9098421376257}, {"id": "farallon-san-francisco", "name": "Farallon", "image_url": "https://s3-media3.fl.yelpcdn.com/bphoto/hYLlc2N36J3ZEGCxFbx2cg/o.jpg", "is_closed": false, "url": "https://www.yelp.com/biz/farallon-san-francisco?adjust_creative=A1HR7D-cXuiUdMXadx5pVQ&utm_campaign=yelp_api_v3&utm_medium=api_v3_business_search&utm_source=A1HR7D-cXuiUdMXadx5pVQ", "review_count": 1433, "categories": [{"alias": "seafood", "title": "Seafood"}], "rating": 4.0, "coordinates": {"latitude": 37.7883291568084, "longitude": -122.409311703041}, "transactions": ["restaurant_reservation"], "price": "$$$$", "location": {"address1": "450 Post St", "address2": "", "address3": "", "city": "San Francisco", "zip_code": "94102", "country": "US", "state": "CA", "display_address": ["450 Post St", "San Francisco, CA 94102"]}, "phone": "+14159566969", "display_phone": "(415) 956-6969", "distance": 3871.804477086158}, {"id": "the-spice-jar-san-francisco", "name": "The Spice Jar", "image_url": "https://s3-media2.fl.yelpcdn.com/bphoto/zyyq36C4mWFl0uMfO6LRFQ/o.jpg", "is_closed": false, "url": "https://www.yelp.com/biz/the-spice-jar-san-francisco?adjust_creative=A1HR7D-cXuiUdMXadx5pVQ&utm_campaign=yelp_api_v3&utm_medium=api_v3_business_search&utm_source=A1HR7D-cXuiUdMXadx5pVQ", "review_count": 275, "categories": [{"alias": "asianfusion", "title": "Asian Fusion"}], "rating": 4.5, "coordinates": {"latitude": 37.7543144480586, "longitude": -122.409359223272}, "transactions": [], "price": "$$", "location": {"address1": "2500 Bryant St", "address2": "", "address3": "", "city": "San Francisco", "zip_code": "94110", "country": "US", "state": "CA", "display_address": ["2500 Bryant St", "San Francisco, CA 94110"]}, "phone": "+14158293668", "display_phone": "(415) 829-3668", "distance": 2491.36836747387}, {"id": "alba-rays-san-francisco", "name": "Alba Ray's", "image_url": "https://s3-media1.fl.yelpcdn.com/bphoto/44QxorbHRjsrheYumF6MNA/o.jpg", "is_closed": false, "url": "https://www.yelp.com/biz/alba-rays-san-francisco?adjust_creative=A1HR7D-cXuiUdMXadx5pVQ&utm_campaign=yelp_api_v3&utm_medium=api_v3_business_search&utm_source=A1HR7D-cXuiUdMXadx5pVQ", "review_count": 240, "categories": [{"alias": "cajun", "title": "Cajun/Creole"}, {"alias": "tapasmallplates", "title": "Tapas/Small Plates"}, {"alias": "cocktailbars", "title": "Cocktail Bars"}], "rating": 4.0, "coordinates": {"latitude": 37.76046, "longitude": -122.41894}, "transactions": [], "price": "$$", "location": {"address1": "2293 Mission St", "address2": "", "address3": null, "city": "San Francisco", "zip_code": "94110", "country": "US", "state": "CA", "display_address": ["2293 Mission St", "San Francisco, CA 94110"]}, "phone": "+14158729409", "display_phone": "(415) 872-9409", "distance": 1533.93396874632}, {"id": "big-bad-wolf-san-francisco", "name": "Big Bad Wolf", "image_url": "https://s3-media4.fl.yelpcdn.com/bphoto/GXwoJFI99Hju3Y72U9xuAw/o.jpg", "is_closed": false, "url": "https://www.yelp.com/biz/big-bad-wolf-san-francisco?adjust_creative=A1HR7D-cXuiUdMXadx5pVQ&utm_campaign=yelp_api_v3&utm_medium=api_v3_business_search&utm_source=A1HR7D-cXuiUdMXadx5pVQ", "review_count": 2, "categories": [{"alias": "korean", "title": "Korean"}, {"alias": "soulfood", "title": "Soul Food"}, {"alias": "popuprestaurants", "title": "Pop-Up Restaurants"}], "rating": 5.0, "coordinates": {"latitude": 37.7872467041016, "longitude": -122.425430297852}, "transactions": ["restaurant_reservation"], "location": {"address1": "1500 Sutter St", "address2": "", "address3": null, "city": "San Francisco", "zip_code": "94109", "country": "US", "state": "CA", "display_address": ["1500 Sutter St", "San Francisco, CA 94109"]}, "phone": "+16505150833", "display_phone": "(650) 515-0833", "distance": 3085.553531262412}, {"id": "hillstone-san-francisco-4", "name": "Hillstone", "image_url": "https://s3-media4.fl.yelpcdn.com/bphoto/3hJ6yHzKFifGe2J32oiE0A/o.jpg", "is_closed": false, "url": "https://www.yelp.com/biz/hillstone-san-francisco-4?adjust_creative=A1HR7D-cXuiUdMXadx5pVQ&utm_campaign=yelp_api_v3&utm_medium=api_v3_business_search&utm_source=A1HR7D-cXuiUdMXadx5pVQ", "review_count": 1938, "categories": [{"alias": "newamerican", "title": "American (New)"}, {"alias": "diners", "title": "Diners"}, {"alias": "wine_bars", "title": "Wine Bars"}], "rating": 4.0, "coordinates": {"latitude": 37.805712595582, "longitude": -122.405280545354}, "transactions": ["restaurant_reservation"], "price": "$$$", "location": {"address1": "1800 Montgomery St", "address2": "", "address3": "", "city": "San Francisco", "zip_code": "94111", "country": "US", "state": "CA", "display_address": ["1800 Montgomery St", "San Francisco, CA 94111"]}, "phone": "+14153929280", "display_phone": "(415) 392-9280", "distance": 5724.2796260702435}, {"id": "the-crew-san-francisco", "name": "The Crew", "image_url": "https://s3-media2.fl.yelpcdn.com/bphoto/O-zYOYJtPaldODwIdBac1w/o.jpg", "is_closed": false, "url": "https://www.yelp.com/biz/the-crew-san-francisco?adjust_creative=A1HR7D-cXuiUdMXadx5pVQ&utm_campaign=yelp_api_v3&utm_medium=api_v3_business_search&utm_source=A1HR7D-cXuiUdMXadx5pVQ", "review_count": 343, "categories": [{"alias": "korean", "title": "Korean"}], "rating": 4.0, "coordinates": {"latitude": 37.7543406605787, "longitude": -122.478169364418}, "transactions": [], "price": "$$", "location": {"address1": "1330 Noriega St", "address2": "", "address3": "", "city": "San Francisco", "zip_code": "94122", "country": "US", "state": "CA", "display_address": ["1330 Noriega St", "San Francisco, CA 94122"]}, "phone": "+14156658548", "display_phone": "(415) 665-8548", "distance": 3739.6654483564917}, {"id": "italian-homemade-company-san-francisco", "name": "Italian Homemade Company", "image_url": "https://s3-media1.fl.yelpcdn.com/bphoto/PHnJ_tB5HjE_bWUW6j2KrQ/o.jpg", "is_closed": false, "url": "https://www.yelp.com/biz/italian-homemade-company-san-francisco?adjust_creative=A1HR7D-cXuiUdMXadx5pVQ&utm_campaign=yelp_api_v3&utm_medium=api_v3_business_search&utm_source=A1HR7D-cXuiUdMXadx5pVQ", "review_count": 916, "categories": [{"alias": "grocery", "title": "Grocery"}, {"alias": "italian", "title": "Italian"}], "rating": 4.5, "coordinates": {"latitude": 37.801752, "longitude": -122.411851}, "transactions": ["delivery", "pickup"], "price": "$$", "location": {"address1": "716 Columbus Ave", "address2": "", "address3": "", "city": "San Francisco", "zip_code": "94133", "country": "US", "state": "CA", "display_address": ["716 Columbus Ave", "San Francisco, CA 94133"]}, "phone": "+14157128874", "display_phone": "(415) 712-8874", "distance": 5030.673143874524}, {"id": "district-san-francisco-san-francisco-3", "name": "District San Francisco", "image_url": "https://s3-media2.fl.yelpcdn.com/bphoto/2rkNbl_lHUsL6HHPxN2s-w/o.jpg", "is_closed": false, "url": "https://www.yelp.com/biz/district-san-francisco-san-francisco-3?adjust_creative=A1HR7D-cXuiUdMXadx5pVQ&utm_campaign=yelp_api_v3&utm_medium=api_v3_business_search&utm_source=A1HR7D-cXuiUdMXadx5pVQ", "review_count": 1039, "categories": [{"alias": "wine_bars", "title": "Wine Bars"}, {"alias": "tapasmallplates", "title": "Tapas/Small Plates"}, {"alias": "whiskeybars", "title": "Whiskey Bars"}], "rating": 4.0, "coordinates": {"latitude": 37.778613006412, "longitude": -122.393322239596}, "transactions": [], "price": "$$", "location": {"address1": "216 Townsend St", "address2": "", "address3": "", "city": "San Francisco", "zip_code": "94107", "country": "US", "state": "CA", "display_address": ["216 Townsend St", "San Francisco, CA 94107"]}, "phone": "+14158962120", "display_phone": "(415) 896-2120", "distance": 4271.752063360866}, {"id": "a-mano-san-francisco-2", "name": "a Mano", "image_url": "https://s3-media2.fl.yelpcdn.com/bphoto/_4dCSv3MuAhNjGbdGm3ibw/o.jpg", "is_closed": false, "url": "https://www.yelp.com/biz/a-mano-san-francisco-2?adjust_creative=A1HR7D-cXuiUdMXadx5pVQ&utm_campaign=yelp_api_v3&utm_medium=api_v3_business_search&utm_source=A1HR7D-cXuiUdMXadx5pVQ", "review_count": 342, "categories": [{"alias": "italian", "title": "Italian"}, {"alias": "cocktailbars", "title": "Cocktail Bars"}], "rating": 4.0, "coordinates": {"latitude": 37.776963880538, "longitude": -122.423868469312}, "transactions": ["restaurant_reservation"], "price": "$$", "location": {"address1": "450 Hayes St", "address2": null, "address3": "", "city": "San Francisco", "zip_code": "94102", "country": "US", "state": "CA", "display_address": ["450 Hayes St", "San Francisco, CA 94102"]}, "phone": "+14155067401", "display_phone": "(415) 506-7401", "distance": 2100.777699610722}, {"id": "tadich-grill-san-francisco", "name": "Tadich Grill", "image_url": "https://s3-media2.fl.yelpcdn.com/bphoto/8LAVB6uYldQfoQ2Qe3Eiww/o.jpg", "is_closed": false, "url": "https://www.yelp.com/biz/tadich-grill-san-francisco?adjust_creative=A1HR7D-cXuiUdMXadx5pVQ&utm_campaign=yelp_api_v3&utm_medium=api_v3_business_search&utm_source=A1HR7D-cXuiUdMXadx5pVQ", "review_count": 2038, "categories": [{"alias": "seafood", "title": "Seafood"}, {"alias": "tradamerican", "title": "American (Traditional)"}], "rating": 4.0, "coordinates": {"latitude": 37.793431560349, "longitude": -122.399468217791}, "transactions": [], "price": "$$$", "location": {"address1": "240 California St", "address2": "", "address3": "", "city": "San Francisco", "zip_code": "94111", "country": "US", "state": "CA", "display_address": ["240 California St", "San Francisco, CA 94111"]}, "phone": "+14153911849", "display_phone": "(415) 391-1849", "distance": 4862.94513868086}, {"id": "jiangnan-cuisine-san-francisco", "name": "Jiangnan Cuisine", "image_url": "https://s3-media4.fl.yelpcdn.com/bphoto/VuW5zgn8bgMKQu6JOcmBIQ/o.jpg", "is_closed": false, "url": "https://www.yelp.com/biz/jiangnan-cuisine-san-francisco?adjust_creative=A1HR7D-cXuiUdMXadx5pVQ&utm_campaign=yelp_api_v3&utm_medium=api_v3_business_search&utm_source=A1HR7D-cXuiUdMXadx5pVQ", "review_count": 92, "categories": [{"alias": "shanghainese", "title": "Shanghainese"}], "rating": 4.5, "coordinates": {"latitude": 37.77603, "longitude": -122.49559}, "transactions": [], "price": "$$", "location": {"address1": "3420 Balboa St", "address2": "", "address3": null, "city": "San Francisco", "zip_code": "94121", "country": "US", "state": "CA", "display_address": ["3420 Balboa St", "San Francisco, CA 94121"]}, "phone": "+14157029931", "display_phone": "(415) 702-9931", "distance": 5464.892570614614}, {"id": "chubby-noodle-san-francisco-3", "name": "Chubby Noodle", "image_url": "https://s3-media2.fl.yelpcdn.com/bphoto/JrLjjC-uFJCseXygxOuk_A/o.jpg", "is_closed": false, "url": "https://www.yelp.com/biz/chubby-noodle-san-francisco-3?adjust_creative=A1HR7D-cXuiUdMXadx5pVQ&utm_campaign=yelp_api_v3&utm_medium=api_v3_business_search&utm_source=A1HR7D-cXuiUdMXadx5pVQ", "review_count": 473, "categories": [{"alias": "noodles", "title": "Noodles"}], "rating": 4.0, "coordinates": {"latitude": 37.7994561586758, "longitude": -122.437992095947}, "transactions": ["restaurant_reservation"], "price": "$$", "location": {"address1": "2205 Lombard St", "address2": "", "address3": "", "city": "San Francisco", "zip_code": "94123", "country": "US", "state": "CA", "display_address": ["2205 Lombard St", "San Francisco, CA 94123"]}, "phone": "+14156553335", "display_phone": "(415) 655-3335", "distance": 4289.461812680302}, {"id": "basil-thai-restaurant-and-bar-san-francisco", "name": "Basil Thai Restaurant & Bar", "image_url": "https://s3-media3.fl.yelpcdn.com/bphoto/e0OWuYSE55WArJSMb0zyDQ/o.jpg", "is_closed": false, "url": "https://www.yelp.com/biz/basil-thai-restaurant-and-bar-san-francisco?adjust_creative=A1HR7D-cXuiUdMXadx5pVQ&utm_campaign=yelp_api_v3&utm_medium=api_v3_business_search&utm_source=A1HR7D-cXuiUdMXadx5pVQ", "review_count": 1356, "categories": [{"alias": "thai", "title": "Thai"}, {"alias": "bars", "title": "Bars"}], "rating": 4.0, "coordinates": {"latitude": 37.7754, "longitude": -122.40927}, "transactions": ["restaurant_reservation"], "price": "$$", "location": {"address1": "1175 Folsom St", "address2": "", "address3": "", "city": "San Francisco", "zip_code": "94103", "country": "US", "state": "CA", "display_address": ["1175 Folsom St", "San Francisco, CA 94103"]}, "phone": "+14155528999", "display_phone": "(415) 552-8999", "distance": 2880.849185388148}, {"id": "barcha-san-francisco", "name": "Barcha", "image_url": "https://s3-media3.fl.yelpcdn.com/bphoto/4iguc--LmeUxxuEJCmJdaQ/o.jpg", "is_closed": false, "url": "https://www.yelp.com/biz/barcha-san-francisco?adjust_creative=A1HR7D-cXuiUdMXadx5pVQ&utm_campaign=yelp_api_v3&utm_medium=api_v3_business_search&utm_source=A1HR7D-cXuiUdMXadx5pVQ", "review_count": 257, "categories": [{"alias": "mediterranean", "title": "Mediterranean"}, {"alias": "tapasmallplates", "title": "Tapas/Small Plates"}], "rating": 4.0, "coordinates": {"latitude": 37.7909966558218, "longitude": -122.397482693195}, "transactions": ["restaurant_reservation"], "price": "$$", "location": {"address1": "28 Fremont St", "address2": "", "address3": "", "city": "San Francisco", "zip_code": "94105", "country": "US", "state": "CA", "display_address": ["28 Fremont St", "San Francisco, CA 94105"]}, "phone": "+14159575463", "display_phone": "(415) 957-5463", "distance": 4791.370780687961}, {"id": "nicks-crispy-tacos-san-francisco-2", "name": "Nick's Crispy Tacos", "image_url": "https://s3-media4.fl.yelpcdn.com/bphoto/hVCVrVFjEHwZqA5ujDfxfg/o.jpg", "is_closed": false, "url": "https://www.yelp.com/biz/nicks-crispy-tacos-san-francisco-2?adjust_creative=A1HR7D-cXuiUdMXadx5pVQ&utm_campaign=yelp_api_v3&utm_medium=api_v3_business_search&utm_source=A1HR7D-cXuiUdMXadx5pVQ", "review_count": 3059, "categories": [{"alias": "mexican", "title": "Mexican"}, {"alias": "sportsbars", "title": "Sports Bars"}], "rating": 4.0, "coordinates": {"latitude": 37.79607, "longitude": -122.42196}, "transactions": ["delivery", "pickup", "restaurant_reservation"], "price": "$", "location": {"address1": "1500 Broadway", "address2": "", "address3": "", "city": "San Francisco", "zip_code": "94109", "country": "US", "state": "CA", "display_address": ["1500 Broadway", "San Francisco, CA 94109"]}, "phone": "+14154098226", "display_phone": "(415) 409-8226", "distance": 4115.017206718953}, {"id": "souvla-san-francisco-3", "name": "Souvla", "image_url": "https://s3-media2.fl.yelpcdn.com/bphoto/zWdepWanMEHyq2QPotQgSA/o.jpg", "is_closed": false, "url": "https://www.yelp.com/biz/souvla-san-francisco-3?adjust_creative=A1HR7D-cXuiUdMXadx5pVQ&utm_campaign=yelp_api_v3&utm_medium=api_v3_business_search&utm_source=A1HR7D-cXuiUdMXadx5pVQ", "review_count": 254, "categories": [{"alias": "mediterranean", "title": "Mediterranean"}, {"alias": "greek", "title": "Greek"}], "rating": 4.5, "coordinates": {"latitude": 37.7745092706543, "longitude": -122.437982037663}, "transactions": [], "price": "$$", "location": {"address1": "531 Divisadero St", "address2": "", "address3": null, "city": "San Francisco", "zip_code": "94117", "country": "US", "state": "CA", "display_address": ["531 Divisadero St", "San Francisco, CA 94117"]}, "phone": "+14154005458", "display_phone": "(415) 400-5458", "distance": 1519.35009506551}, {"id": "koja-kitchen-san-francisco-7", "name": "Koja Kitchen", "image_url": "https://s3-media4.fl.yelpcdn.com/bphoto/gmOgBfr9AznLz47yD6jvRQ/o.jpg", "is_closed": false, "url": "https://www.yelp.com/biz/koja-kitchen-san-francisco-7?adjust_creative=A1HR7D-cXuiUdMXadx5pVQ&utm_campaign=yelp_api_v3&utm_medium=api_v3_business_search&utm_source=A1HR7D-cXuiUdMXadx5pVQ", "review_count": 482, "categories": [{"alias": "japanese", "title": "Japanese"}, {"alias": "korean", "title": "Korean"}, {"alias": "asianfusion", "title": "Asian Fusion"}], "rating": 4.0, "coordinates": {"latitude": 37.7828700207607, "longitude": -122.463096337593}, "transactions": ["pickup"], "price": "$$", "location": {"address1": "343 Clement St", "address2": null, "address3": "", "city": "San Francisco", "zip_code": "94118", "country": "US", "state": "CA", "display_address": ["343 Clement St", "San Francisco, CA 94118"]}, "phone": "+14154635085", "display_phone": "(415) 463-5085", "distance": 3384.494942019362}, {"id": "burma-love-san-francisco-2", "name": "Burma Love", "image_url": "https://s3-media3.fl.yelpcdn.com/bphoto/ofu7k8bW9GxG_kBlcTF30w/o.jpg", "is_closed": false, "url": "https://www.yelp.com/biz/burma-love-san-francisco-2?adjust_creative=A1HR7D-cXuiUdMXadx5pVQ&utm_campaign=yelp_api_v3&utm_medium=api_v3_business_search&utm_source=A1HR7D-cXuiUdMXadx5pVQ", "review_count": 753, "categories": [{"alias": "burmese", "title": "Burmese"}, {"alias": "bars", "title": "Bars"}, {"alias": "seafood", "title": "Seafood"}], "rating": 4.0, "coordinates": {"latitude": 37.76961, "longitude": -122.42205}, "transactions": ["delivery", "pickup", "restaurant_reservation"], "price": "$$", "location": {"address1": "211 Valencia St", "address2": "", "address3": "", "city": "San Francisco", "zip_code": "94103", "country": "US", "state": "CA", "display_address": ["211 Valencia St", "San Francisco, CA 94103"]}, "phone": "+14158612100", "display_phone": "(415) 861-2100", "distance": 1591.260773575344}, {"id": "aria-korean-tapas-san-francisco-2", "name": "Aria Korean Tapas", "image_url": "https://s3-media1.fl.yelpcdn.com/bphoto/dl_1Kbcfg-KYi1T9LCOlDw/o.jpg", "is_closed": false, "url": "https://www.yelp.com/biz/aria-korean-tapas-san-francisco-2?adjust_creative=A1HR7D-cXuiUdMXadx5pVQ&utm_campaign=yelp_api_v3&utm_medium=api_v3_business_search&utm_source=A1HR7D-cXuiUdMXadx5pVQ", "review_count": 317, "categories": [{"alias": "korean", "title": "Korean"}, {"alias": "tapasmallplates", "title": "Tapas/Small Plates"}, {"alias": "chickenshop", "title": "Chicken Shop"}], "rating": 4.0, "coordinates": {"latitude": 37.78655, "longitude": -122.41795}, "transactions": [], "price": "$", "location": {"address1": "932 Larkin St", "address2": "", "address3": "", "city": "San Francisco", "zip_code": "94109", "country": "US", "state": "CA", "display_address": ["932 Larkin St", "San Francisco, CA 94109"]}, "phone": "+14152926914", "display_phone": "(415) 292-6914", "distance": 3283.1125687925437}, {"id": "serpentine-san-francisco", "name": "Serpentine", "image_url": "https://s3-media2.fl.yelpcdn.com/bphoto/U1oeg4GkPp2PYFvqYqsDQQ/o.jpg", "is_closed": false, "url": "https://www.yelp.com/biz/serpentine-san-francisco?adjust_creative=A1HR7D-cXuiUdMXadx5pVQ&utm_campaign=yelp_api_v3&utm_medium=api_v3_business_search&utm_source=A1HR7D-cXuiUdMXadx5pVQ", "review_count": 1391, "categories": [{"alias": "newamerican", "title": "American (New)"}], "rating": 4.0, "coordinates": {"latitude": 37.758100271937, "longitude": -122.38818876502}, "transactions": [], "price": "$$", "location": {"address1": "2495 3rd St", "address2": "", "address3": "", "city": "San Francisco", "zip_code": "94107", "country": "US", "state": "CA", "display_address": ["2495 3rd St", "San Francisco, CA 94107"]}, "phone": "+14152522000", "display_phone": "(415) 252-2000", "distance": 4253.761674596351}, {"id": "bluestem-brasserie-san-francisco", "name": "Bluestem Brasserie", "image_url": "https://s3-media2.fl.yelpcdn.com/bphoto/maPFahxo1lZPeWLEBANSqQ/o.jpg", "is_closed": false, "url": "https://www.yelp.com/biz/bluestem-brasserie-san-francisco?adjust_creative=A1HR7D-cXuiUdMXadx5pVQ&utm_campaign=yelp_api_v3&utm_medium=api_v3_business_search&utm_source=A1HR7D-cXuiUdMXadx5pVQ", "review_count": 1482, "categories": [{"alias": "brasseries", "title": "Brasseries"}], "rating": 3.5, "coordinates": {"latitude": 37.785985, "longitude": -122.404921}, "transactions": [], "price": "$$$", "location": {"address1": "One Yerba Buena Ln", "address2": "", "address3": "", "city": "San Francisco", "zip_code": "94103", "country": "US", "state": "CA", "display_address": ["One Yerba Buena Ln", "San Francisco, CA 94103"]}, "phone": "+14155471111", "display_phone": "(415) 547-1111", "distance": 3931.7529514927414}, {"id": "the-snug-san-francisco", "name": "The Snug", "image_url": "https://s3-media2.fl.yelpcdn.com/bphoto/ILBwPmLC7lnkYhNLmjGlkA/o.jpg", "is_closed": false, "url": "https://www.yelp.com/biz/the-snug-san-francisco?adjust_creative=A1HR7D-cXuiUdMXadx5pVQ&utm_campaign=yelp_api_v3&utm_medium=api_v3_business_search&utm_source=A1HR7D-cXuiUdMXadx5pVQ", "review_count": 43, "categories": [{"alias": "cocktailbars", "title": "Cocktail Bars"}, {"alias": "tradamerican", "title": "American (Traditional)"}, {"alias": "pubs", "title": "Pubs"}], "rating": 4.0, "coordinates": {"latitude": 37.79094, "longitude": -122.43443}, "transactions": [], "price": "$$", "location": {"address1": "2301 Fillmore St", "address2": "", "address3": null, "city": "San Francisco", "zip_code": "94115", "country": "US", "state": "CA", "display_address": ["2301 Fillmore St", "San Francisco, CA 94115"]}, "phone": "+14155625092", "display_phone": "(415) 562-5092", "distance": 3342.88779581692}, {"id": "nopalito-san-francisco-3", "name": "Nopalito", "image_url": "https://s3-media1.fl.yelpcdn.com/bphoto/ivWbAmbGMo0_aruu2kTKsg/o.jpg", "is_closed": false, "url": "https://www.yelp.com/biz/nopalito-san-francisco-3?adjust_creative=A1HR7D-cXuiUdMXadx5pVQ&utm_campaign=yelp_api_v3&utm_medium=api_v3_business_search&utm_source=A1HR7D-cXuiUdMXadx5pVQ", "review_count": 1043, "categories": [{"alias": "mexican", "title": "Mexican"}, {"alias": "comfortfood", "title": "Comfort Food"}, {"alias": "gluten_free", "title": "Gluten-Free"}], "rating": 4.0, "coordinates": {"latitude": 37.765409579693, "longitude": -122.466281482937}, "transactions": [], "price": "$$", "location": {"address1": "1224 9th Ave", "address2": "", "address3": "", "city": "San Francisco", "zip_code": "94122", "country": "US", "state": "CA", "display_address": ["1224 9th Ave", "San Francisco, CA 94122"]}, "phone": "+14152339966", "display_phone": "(415) 233-9966", "distance": 2670.106408828576}, {"id": "thanh-long-san-francisco", "name": "Thanh Long", "image_url": "https://s3-media4.fl.yelpcdn.com/bphoto/ukHLQEd1wnsLjqtRRCs6hw/o.jpg", "is_closed": false, "url": "https://www.yelp.com/biz/thanh-long-san-francisco?adjust_creative=A1HR7D-cXuiUdMXadx5pVQ&utm_campaign=yelp_api_v3&utm_medium=api_v3_business_search&utm_source=A1HR7D-cXuiUdMXadx5pVQ", "review_count": 2214, "categories": [{"alias": "seafood", "title": "Seafood"}, {"alias": "vietnamese", "title": "Vietnamese"}], "rating": 4.0, "coordinates": {"latitude": 37.76017, "longitude": -122.50609}, "transactions": ["restaurant_reservation"], "price": "$$$", "location": {"address1": "4101 Judah St", "address2": "", "address3": "", "city": "San Francisco", "zip_code": "94122", "country": "US", "state": "CA", "display_address": ["4101 Judah St", "San Francisco, CA 94122"]}, "phone": "+14156651146", "display_phone": "(415) 665-1146", "distance": 6122.811241787982}, {"id": "rambler-san-francisco-2", "name": "Rambler", "image_url": "https://s3-media1.fl.yelpcdn.com/bphoto/uHuoxtFp7Y-j9h8-Yi7BKA/o.jpg", "is_closed": false, "url": "https://www.yelp.com/biz/rambler-san-francisco-2?adjust_creative=A1HR7D-cXuiUdMXadx5pVQ&utm_campaign=yelp_api_v3&utm_medium=api_v3_business_search&utm_source=A1HR7D-cXuiUdMXadx5pVQ", "review_count": 321, "categories": [{"alias": "newamerican", "title": "American (New)"}], "rating": 3.5, "coordinates": {"latitude": 37.78771, "longitude": -122.41071}, "transactions": ["restaurant_reservation"], "price": "$$", "location": {"address1": "545 Post St", "address2": "", "address3": null, "city": "San Francisco", "zip_code": "94102", "country": "US", "state": "CA", "display_address": ["545 Post St", "San Francisco, CA 94102"]}, "phone": "+14155498008", "display_phone": "(415) 549-8008", "distance": 3744.1652946405043}, {"id": "the-dorian-san-francisco", "name": "The Dorian", "image_url": "https://s3-media1.fl.yelpcdn.com/bphoto/V-FzQ2ezVUTcSXjlDWSU5g/o.jpg", "is_closed": false, "url": "https://www.yelp.com/biz/the-dorian-san-francisco?adjust_creative=A1HR7D-cXuiUdMXadx5pVQ&utm_campaign=yelp_api_v3&utm_medium=api_v3_business_search&utm_source=A1HR7D-cXuiUdMXadx5pVQ", "review_count": 295, "categories": [{"alias": "tradamerican", "title": "American (Traditional)"}, {"alias": "cocktailbars", "title": "Cocktail Bars"}, {"alias": "gastropubs", "title": "Gastropubs"}], "rating": 4.0, "coordinates": {"latitude": 37.80065, "longitude": -122.4365}, "transactions": ["restaurant_reservation"], "price": "$$", "location": {"address1": "2001 Chestnut St", "address2": "", "address3": "", "city": "San Francisco", "zip_code": "94123", "country": "US", "state": "CA", "display_address": ["2001 Chestnut St", "San Francisco, CA 94123"]}, "phone": "+14158142671", "display_phone": "(415) 814-2671", "distance": 4416.89652461654}, {"id": "muraccis-japanese-curry-and-grill-san-francisco", "name": "Muracci's Japanese Curry & Grill", "image_url": "https://s3-media3.fl.yelpcdn.com/bphoto/pqGATapVx1nBqX1pVyQDKA/o.jpg", "is_closed": false, "url": "https://www.yelp.com/biz/muraccis-japanese-curry-and-grill-san-francisco?adjust_creative=A1HR7D-cXuiUdMXadx5pVQ&utm_campaign=yelp_api_v3&utm_medium=api_v3_business_search&utm_source=A1HR7D-cXuiUdMXadx5pVQ", "review_count": 1543, "categories": [{"alias": "japacurry", "title": "Japanese Curry"}], "rating": 4.0, "coordinates": {"latitude": 37.791036, "longitude": -122.404233}, "transactions": ["pickup"], "price": "$$", "location": {"address1": "307 Kearny St", "address2": "Ste 204", "address3": "", "city": "San Francisco", "zip_code": "94108", "country": "US", "state": "CA", "display_address": ["307 Kearny St", "Ste 204", "San Francisco, CA 94108"]}, "phone": "+14157731101", "display_phone": "(415) 773-1101", "distance": 4386.985758656309}, {"id": "queens-louisiana-po-boy-cafe-san-francisco", "name": "Queen's Louisiana Po-Boy Cafe", "image_url": "https://s3-media2.fl.yelpcdn.com/bphoto/b0E54Qdr5_n1b1NklII1Qw/o.jpg", "is_closed": false, "url": "https://www.yelp.com/biz/queens-louisiana-po-boy-cafe-san-francisco?adjust_creative=A1HR7D-cXuiUdMXadx5pVQ&utm_campaign=yelp_api_v3&utm_medium=api_v3_business_search&utm_source=A1HR7D-cXuiUdMXadx5pVQ", "review_count": 458, "categories": [{"alias": "cajun", "title": "Cajun/Creole"}, {"alias": "southern", "title": "Southern"}, {"alias": "seafood", "title": "Seafood"}], "rating": 4.0, "coordinates": {"latitude": 37.8069472721646, "longitude": -122.405687865908}, "transactions": ["pickup", "restaurant_reservation"], "price": "$$", "location": {"address1": "Pier 33 N The Embarcadero", "address2": "Ste 100", "address3": "", "city": "San Francisco", "zip_code": "94111", "country": "US", "state": "CA", "display_address": ["Pier 33 N The Embarcadero", "Ste 100", "San Francisco, CA 94111"]}, "phone": "+14153971507", "display_phone": "(415) 397-1507", "distance": 5790.01276334984}, {"id": "the-monks-kettle-san-francisco", "name": "The Monk's Kettle", "image_url": "https://s3-media1.fl.yelpcdn.com/bphoto/47kA45l9yNMMPg1P_qbCGw/o.jpg", "is_closed": false, "url": "https://www.yelp.com/biz/the-monks-kettle-san-francisco?adjust_creative=A1HR7D-cXuiUdMXadx5pVQ&utm_campaign=yelp_api_v3&utm_medium=api_v3_business_search&utm_source=A1HR7D-cXuiUdMXadx5pVQ", "review_count": 2049, "categories": [{"alias": "bars", "title": "Bars"}, {"alias": "gastropubs", "title": "Gastropubs"}], "rating": 4.0, "coordinates": {"latitude": 37.7647290879634, "longitude": -122.42297490884}, "transactions": [], "price": "$$", "location": {"address1": "3141 16th St", "address2": "", "address3": "", "city": "San Francisco", "zip_code": "94103", "country": "US", "state": "CA", "display_address": ["3141 16th St", "San Francisco, CA 94103"]}, "phone": "+14158659523", "display_phone": "(415) 865-9523", "distance": 1258.516735086052}, {"id": "hard-knox-cafe-san-francisco-3", "name": "Hard Knox Cafe", "image_url": "https://s3-media2.fl.yelpcdn.com/bphoto/9qypTdiM9OrfS6iUNO_QpQ/o.jpg", "is_closed": false, "url": "https://www.yelp.com/biz/hard-knox-cafe-san-francisco-3?adjust_creative=A1HR7D-cXuiUdMXadx5pVQ&utm_campaign=yelp_api_v3&utm_medium=api_v3_business_search&utm_source=A1HR7D-cXuiUdMXadx5pVQ", "review_count": 1965, "categories": [{"alias": "soulfood", "title": "Soul Food"}, {"alias": "southern", "title": "Southern"}, {"alias": "sandwiches", "title": "Sandwiches"}], "rating": 4.0, "coordinates": {"latitude": 37.7575200814767, "longitude": -122.388580106199}, "transactions": [], "price": "$$", "location": {"address1": "2526 3rd St", "address2": "", "address3": null, "city": "San Francisco", "zip_code": "94107", "country": "US", "state": "CA", "display_address": ["2526 3rd St", "San Francisco, CA 94107"]}, "phone": "+14156483770", "display_phone": "(415) 648-3770", "distance": 4224.717372142234}, {"id": "chubby-noodle-san-francisco-4", "name": "Chubby Noodle", "image_url": "https://s3-media2.fl.yelpcdn.com/bphoto/TGTDURVKGeaRLJl6jXkHVw/o.jpg", "is_closed": false, "url": "https://www.yelp.com/biz/chubby-noodle-san-francisco-4?adjust_creative=A1HR7D-cXuiUdMXadx5pVQ&utm_campaign=yelp_api_v3&utm_medium=api_v3_business_search&utm_source=A1HR7D-cXuiUdMXadx5pVQ", "review_count": 287, "categories": [{"alias": "asianfusion", "title": "Asian Fusion"}, {"alias": "noodles", "title": "Noodles"}], "rating": 4.0, "coordinates": {"latitude": 37.7989962525433, "longitude": -122.407175526023}, "transactions": [], "price": "$$", "location": {"address1": "1310 Grant St", "address2": "", "address3": "", "city": "San Francisco", "zip_code": "94133", "country": "US", "state": "CA", "display_address": ["1310 Grant St", "San Francisco, CA 94133"]}, "phone": "+14152969600", "display_phone": "(415) 296-9600", "distance": 4956.117528915014}, {"id": "spruce-san-francisco", "name": "Spruce", "image_url": "https://s3-media4.fl.yelpcdn.com/bphoto/tvg0xlda6LoH-NXEWbC9hA/o.jpg", "is_closed": false, "url": "https://www.yelp.com/biz/spruce-san-francisco?adjust_creative=A1HR7D-cXuiUdMXadx5pVQ&utm_campaign=yelp_api_v3&utm_medium=api_v3_business_search&utm_source=A1HR7D-cXuiUdMXadx5pVQ", "review_count": 1721, "categories": [{"alias": "tradamerican", "title": "American (Traditional)"}], "rating": 4.0, "coordinates": {"latitude": 37.787621, "longitude": -122.452734}, "transactions": ["restaurant_reservation"], "price": "$$$$", "location": {"address1": "3640 Sacramento St", "address2": "", "address3": "", "city": "San Francisco", "zip_code": "94118", "country": "US", "state": "CA", "display_address": ["3640 Sacramento St", "San Francisco, CA 94118"]}, "phone": "+14159315100", "display_phone": "(415) 931-5100", "distance": 3298.148556290762}, {"id": "delicious-dim-sum-san-francisco", "name": "Delicious Dim Sum", "image_url": "https://s3-media4.fl.yelpcdn.com/bphoto/XikMaSI2cOA7JN2aKkFu3A/o.jpg", "is_closed": false, "url": "https://www.yelp.com/biz/delicious-dim-sum-san-francisco?adjust_creative=A1HR7D-cXuiUdMXadx5pVQ&utm_campaign=yelp_api_v3&utm_medium=api_v3_business_search&utm_source=A1HR7D-cXuiUdMXadx5pVQ", "review_count": 762, "categories": [{"alias": "dimsum", "title": "Dim Sum"}, {"alias": "cantonese", "title": "Cantonese"}], "rating": 4.0, "coordinates": {"latitude": 37.796051, "longitude": -122.4076004}, "transactions": [], "price": "$", "location": {"address1": "752 Jackson St", "address2": "", "address3": "", "city": "San Francisco", "zip_code": "94133", "country": "US", "state": "CA", "display_address": ["752 Jackson St", "San Francisco, CA 94133"]}, "phone": "+14157810721", "display_phone": "(415) 781-0721", "distance": 4662.616211520102}], "total": 4900, "region": {"center": {"longitude": -122.4364471436, "latitude": 37.7608993898}}}