{"businesses": [{"id": "bite-san-francisco", "name": "Bite", "image_url": "https://s3-media1.fl.yelpcdn.com/bphoto/7uYT0GGhsNmNQZ0zfv_s6w/o.jpg", "is_closed": false, "url": "https://www.yelp.com/biz/bite-san-francisco?adjust_creative=A1HR7D-cXuiUdMXadx5pVQ&utm_campaign=yelp_api_v3&utm_medium=api_v3_business_search&utm_source=A1HR7D-cXuiUdMXadx5pVQ", "review_count": 610, "categories": [{"alias": "delis", "title": "Delis"}, {"alias": "sandwiches", "title": "Sandwiches"}, {"alias": "salad", "title": "Salad"}], "rating": 4.5, "coordinates": {"latitude": 37.7884239641, "longitude": -122.415666133}, "transactions": ["delivery", "pickup"], "price": "$", "location": {"address1": "912 Sutter St", "address2": "", "address3": "", "city": "San Francisco", "zip_code": "94104", "country": "US", "state": "CA", "display_address": ["912 Sutter St", "San Francisco, CA 94104"]}, "phone": "+14155632483", "display_phone": "(415) 563-2483", "distance": 3564.154680072716}, {"id": "clement-bbq-san-francisco-2", "name": "Clement BBQ", "image_url": "https://s3-media4.fl.yelpcdn.com/bphoto/_B5bPOS_i9IMNEJL6neOAA/o.jpg", "is_closed": false, "url": "https://www.yelp.com/biz/clement-bbq-san-francisco-2?adjust_creative=A1HR7D-cXuiUdMXadx5pVQ&utm_campaign=yelp_api_v3&utm_medium=api_v3_business_search&utm_source=A1HR7D-cXuiUdMXadx5pVQ", "review_count": 237, "categories": [{"alias": "dimsum", "title": "Dim Sum"}, {"alias": "bbq", "title": "Barbeque"}], "rating": 4.0, "coordinates": {"latitude": 37.7826652526855, "longitude": -122.465911865234}, "transactions": [], "price": "$", "location": {"address1": "617 Clement St", "address2": "", "address3": "", "city": "San Francisco", "zip_code": "94118", "country": "US", "state": "CA", "display_address": ["617 Clement St", "San Francisco, CA 94118"]}, "phone": "+14157529520", "display_phone": "(415) 752-9520", "distance": 3543.451379072804}, {"id": "calzones-restaurant-san-francisco", "name": "Calzone's Restaurant", "image_url": "https://s3-media2.fl.yelpcdn.com/bphoto/geKB9IAW0XWAJSE0bQuecw/o.jpg", "is_closed": false, "url": "https://www.yelp.com/biz/calzones-restaurant-san-francisco?adjust_creative=A1HR7D-cXuiUdMXadx5pVQ&utm_campaign=yelp_api_v3&utm_medium=api_v3_business_search&utm_source=A1HR7D-cXuiUdMXadx5pVQ", "review_count": 1318, "categories": [{"alias": "pizza", "title": "Pizza"}, {"alias": "salad", "title": "Salad"}], "rating": 3.5, "coordinates": {"latitude": 37.799032, "longitude": -122.4081743}, "transactions": ["restaurant_reservation"], "price": "$$", "location": {"address1": "430 Columbus Ave", "address2": "", "address3": "", "city": "San Francisco", "zip_code": "94133", "country": "US", "state": "CA", "display_address": ["430 Columbus Ave", "San Francisco, CA 94133"]}, "phone": "+14153973600", "display_phone": "(415) 397-3600", "distance": 4914.55751818903}, {"id": "the-liberties-san-francisco", "name": "The Liberties", "image_url": "https://s3-media3.fl.yelpcdn.com/bphoto/3TYt68FrNzSBhUCPS5uVOw/o.jpg", "is_closed": false, "url": "https://www.yelp.com/biz/the-liberties-san-francisco?adjust_creative=A1HR7D-cXuiUdMXadx5pVQ&utm_campaign=yelp_api_v3&utm_medium=api_v3_business_search&utm_source=A1HR7D-cXuiUdMXadx5pVQ", "review_count": 290, "categories": [{"alias": "pubs", "title": "Pubs"}, {"alias": "comfortfood", "title": "Comfort Food"}], "rating": 3.0, "coordinates": {"latitude": 37.75527, "longitude": -122.42353}, "transactions": ["pickup", "restaurant_reservation"], "price": "$$", "location": {"address1": "998 Guerrero St", "address2": "", "address3": "", "city": "San Francisco", "zip_code": "94110", "country": "US", "state": "CA", "display_address": ["998 Guerrero St", "San Francisco, CA 94110"]}, "phone": "+14152826789", "display_phone": "(415) 282-6789", "distance": 1303.494687692542}, {"id": "frjtz-san-francisco-2", "name": "Frjtz", "image_url": "https://s3-media1.fl.yelpcdn.com/bphoto/799WqwMoSy5v95-ZCiQoEQ/o.jpg", "is_closed": false, "url": "https://www.yelp.com/biz/frjtz-san-francisco-2?adjust_creative=A1HR7D-cXuiUdMXadx5pVQ&utm_campaign=yelp_api_v3&utm_medium=api_v3_business_search&utm_source=A1HR7D-cXuiUdMXadx5pVQ", "review_count": 1243, "categories": [{"alias": "waffles", "title": "Waffles"}, {"alias": "breakfast_brunch", "title": "Breakfast & Brunch"}, {"alias": "burgers", "title": "Burgers"}], "rating": 3.5, "coordinates": {"latitude": 37.7634468078613, "longitude": -122.42204284668}, "transactions": ["delivery", "restaurant_reservation", "pickup"], "price": "$$", "location": {"address1": "590 Valencia St", "address2": "", "address3": "", "city": "San Francisco", "zip_code": "94110", "country": "US", "state": "CA", "display_address": ["590 Valencia St", "San Francisco, CA 94110"]}, "phone": "+14158638272", "display_phone": "(415) 863-8272", "distance": 1294.35346059168}, {"id": "pizzahacker-san-francisco-4", "name": "Pizzahacker", "image_url": "https://s3-media3.fl.yelpcdn.com/bphoto/UbYgUDfGNbVq4AQJ5y1Fzw/o.jpg", "is_closed": false, "url": "https://www.yelp.com/biz/pizzahacker-san-francisco-4?adjust_creative=A1HR7D-cXuiUdMXadx5pVQ&utm_campaign=yelp_api_v3&utm_medium=api_v3_business_search&utm_source=A1HR7D-cXuiUdMXadx5pVQ", "review_count": 262, "categories": [{"alias": "pizza", "title": "Pizza"}, {"alias": "italian", "title": "Italian"}], "rating": 4.0, "coordinates": {"latitude": 37.7441289, "longitude": -122.4206997}, "transactions": ["delivery", "pickup"], "price": "$$", "location": {"address1": "3299 Mission St", "address2": "", "address3": "", "city": "San Francisco", "zip_code": "94110", "country": "US", "state": "CA", "display_address": ["3299 Mission St", "San Francisco, CA 94110"]}, "phone": "+14159916911", "display_phone": "(415) 991-6911", "distance": 2322.5468134971297}, {"id": "the-pizza-shop-san-francisco", "name": "The Pizza Shop", "image_url": "https://s3-media4.fl.yelpcdn.com/bphoto/qXseKHovSO0D7pU2qqlQnQ/o.jpg", "is_closed": false, "url": "https://www.yelp.com/biz/the-pizza-shop-san-francisco?adjust_creative=A1HR7D-cXuiUdMXadx5pVQ&utm_campaign=yelp_api_v3&utm_medium=api_v3_business_search&utm_source=A1HR7D-cXuiUdMXadx5pVQ", "review_count": 271, "categories": [{"alias": "pizza", "title": "Pizza"}], "rating": 4.5, "coordinates": {"latitude": 37.7525918579061, "longitude": -122.41455420986}, "transactions": [], "price": "$", "location": {"address1": "3104 24th St", "address2": "", "address3": "", "city": "San Francisco", "zip_code": "94110", "country": "US", "state": "CA", "display_address": ["3104 24th St", "San Francisco, CA 94110"]}, "phone": "+14158241840", "display_phone": "(415) 824-1840", "distance": 2134.865970869938}, {"id": "thai-chef-san-francisco", "name": "Thai Chef", "image_url": "https://s3-media4.fl.yelpcdn.com/bphoto/utUf_x8Xp-84Ddb-xPWZqw/o.jpg", "is_closed": false, "url": "https://www.yelp.com/biz/thai-chef-san-francisco?adjust_creative=A1HR7D-cXuiUdMXadx5pVQ&utm_campaign=yelp_api_v3&utm_medium=api_v3_business_search&utm_source=A1HR7D-cXuiUdMXadx5pVQ", "review_count": 222, "categories": [{"alias": "thai", "title": "Thai"}], "rating": 3.5, "coordinates": {"latitude": 37.760792, "longitude": -122.435785}, "transactions": ["delivery", "pickup"], "price": "$$", "location": {"address1": "4133 18th St", "address2": "", "address3": "", "city": "San Francisco", "zip_code": "94114", "country": "US", "state": "CA", "display_address": ["4133 18th St", "San Francisco, CA 94114"]}, "phone": "+14155512433", "display_phone": "(415) 551-2433", "distance": 59.419741199247994}, {"id": "petit-crenn-san-francisco", "name": "Petit Crenn", "image_url": "https://s3-media4.fl.yelpcdn.com/bphoto/dTuo8fs4g1s73Qugjhht2Q/o.jpg", "is_closed": false, "url": "https://www.yelp.com/biz/petit-crenn-san-francisco?adjust_creative=A1HR7D-cXuiUdMXadx5pVQ&utm_campaign=yelp_api_v3&utm_medium=api_v3_business_search&utm_source=A1HR7D-cXuiUdMXadx5pVQ", "review_count": 279, "categories": [{"alias": "french", "title": "French"}], "rating": 4.0, "coordinates": {"latitude": 37.7762604, "longitude": -122.4264908}, "transactions": ["restaurant_reservation"], "price": "$$$$", "location": {"address1": "609 Hayes St", "address2": "", "address3": "", "city": "San Francisco", "zip_code": "94102", "country": "US", "state": "CA", "display_address": ["609 Hayes St", "San Francisco, CA 94102"]}, "phone": "+14158641744", "display_phone": "(415) 864-1744", "distance": 1916.8447153343097}, {"id": "jang-soo-bbq-san-francisco", "name": "Jang Soo BBQ", "image_url": "https://s3-media1.fl.yelpcdn.com/bphoto/2vQmib8YCu-7I_jn00KRpQ/o.jpg", "is_closed": false, "url": "https://www.yelp.com/biz/jang-soo-bbq-san-francisco?adjust_creative=A1HR7D-cXuiUdMXadx5pVQ&utm_campaign=yelp_api_v3&utm_medium=api_v3_business_search&utm_source=A1HR7D-cXuiUdMXadx5pVQ", "review_count": 448, "categories": [{"alias": "bbq", "title": "Barbeque"}, {"alias": "korean", "title": "Korean"}, {"alias": "soup", "title": "Soup"}], "rating": 4.0, "coordinates": {"latitude": 37.780196, "longitude": -122.487262}, "transactions": ["pickup"], "price": "$$", "location": {"address1": "6314 Geary Blvd", "address2": "", "address3": "", "city": "San Francisco", "zip_code": "94121", "country": "US", "state": "CA", "display_address": ["6314 Geary Blvd", "San Francisco, CA 94121"]}, "phone": "+14152218282", "display_phone": "(415) 221-8282", "distance": 4955.093724260452}, {"id": "gyro-xpress-san-francisco", "name": "Gyro Xpress", "image_url": "https://s3-media4.fl.yelpcdn.com/bphoto/Nut1422ZUUDk9VE96TZDJQ/o.jpg", "is_closed": false, "url": "https://www.yelp.com/biz/gyro-xpress-san-francisco?adjust_creative=A1HR7D-cXuiUdMXadx5pVQ&utm_campaign=yelp_api_v3&utm_medium=api_v3_business_search&utm_source=A1HR7D-cXuiUdMXadx5pVQ", "review_count": 268, "categories": [{"alias": "mediterranean", "title": "Mediterranean"}, {"alias": "greek", "title": "Greek"}, {"alias": "diners", "title": "Diners"}], "rating": 3.0, "coordinates": {"latitude": 37.7611402, "longitude": -122.4345649}, "transactions": ["pickup", "delivery"], "price": "$$", "location": {"address1": "499 Castro St", "address2": "", "address3": "", "city": "San Francisco", "zip_code": "94114", "country": "US", "state": "CA", "display_address": ["499 Castro St", "San Francisco, CA 94114"]}, "phone": "+14155540352", "display_phone": "(415) 554-0352", "distance": 167.615921582826}, {"id": "hahns-hibachi-korean-bbq-san-francisco", "name": "Hahn's Hibachi Korean BBQ", "image_url": "https://s3-media3.fl.yelpcdn.com/bphoto/aXhPpnmvOM6Xanr5YucZaA/o.jpg", "is_closed": false, "url": "https://www.yelp.com/biz/hahns-hibachi-korean-bbq-san-francisco?adjust_creative=A1HR7D-cXuiUdMXadx5pVQ&utm_campaign=yelp_api_v3&utm_medium=api_v3_business_search&utm_source=A1HR7D-cXuiUdMXadx5pVQ", "review_count": 319, "categories": [{"alias": "korean", "title": "Korean"}, {"alias": "bbq", "title": "Barbeque"}], "rating": 3.5, "coordinates": {"latitude": 37.79261, "longitude": -122.42089}, "transactions": [], "price": "$$", "location": {"address1": "1710 Polk St", "address2": "", "address3": "", "city": "San Francisco", "zip_code": "94109", "country": "US", "state": "CA", "display_address": ["1710 Polk St", "San Francisco, CA 94109"]}, "phone": "+14157761095", "display_phone": "(415) 776-1095", "distance": 3783.7381855152735}, {"id": "benihana-san-francisco", "name": "Benihana", "image_url": "https://s3-media2.fl.yelpcdn.com/bphoto/JjYWHkxLcr8U3gBLoj02cA/o.jpg", "is_closed": false, "url": "https://www.yelp.com/biz/benihana-san-francisco?adjust_creative=A1HR7D-cXuiUdMXadx5pVQ&utm_campaign=yelp_api_v3&utm_medium=api_v3_business_search&utm_source=A1HR7D-cXuiUdMXadx5pVQ", "review_count": 966, "categories": [{"alias": "teppanyaki", "title": "Teppanyaki"}, {"alias": "sushi", "title": "Sushi Bars"}, {"alias": "seafood", "title": "Seafood"}], "rating": 3.0, "coordinates": {"latitude": 37.7852528273806, "longitude": -122.430688365711}, "transactions": ["restaurant_reservation", "delivery", "pickup"], "price": "$$$", "location": {"address1": "1737 Post St", "address2": "", "address3": "", "city": "San Francisco", "zip_code": "94115", "country": "US", "state": "CA", "display_address": ["1737 Post St", "San Francisco, CA 94115"]}, "phone": "+14155634844", "display_phone": "(415) 563-4844", "distance": 2754.873396327876}, {"id": "xiao-loong-restaurant-san-francisco", "name": "Xiao Loong Restaurant", "image_url": "https://s3-media2.fl.yelpcdn.com/bphoto/5clhMyLiBYb_c9ygC3kSaA/o.jpg", "is_closed": false, "url": "https://www.yelp.com/biz/xiao-loong-restaurant-san-francisco?adjust_creative=A1HR7D-cXuiUdMXadx5pVQ&utm_campaign=yelp_api_v3&utm_medium=api_v3_business_search&utm_source=A1HR7D-cXuiUdMXadx5pVQ", "review_count": 228, "categories": [{"alias": "chinese", "title": "Chinese"}], "rating": 4.0, "coordinates": {"latitude": 37.7385499, "longitude": -122.46884}, "transactions": ["pickup", "delivery"], "price": "$$", "location": {"address1": "250 W Portal Ave", "address2": "", "address3": "", "city": "San Francisco", "zip_code": "94127", "country": "US", "state": "CA", "display_address": ["250 W Portal Ave", "San Francisco, CA 94127"]}, "phone": "+14157535678", "display_phone": "(415) 753-5678", "distance": 3780.5621350006654}, {"id": "perrys-san-francisco-6", "name": "Perry's", "image_url": "https://s3-media3.fl.yelpcdn.com/bphoto/fuaQVlhOJOVslgFfBh92bg/o.jpg", "is_closed": false, "url": "https://www.yelp.com/biz/perrys-san-francisco-6?adjust_creative=A1HR7D-cXuiUdMXadx5pVQ&utm_campaign=yelp_api_v3&utm_medium=api_v3_business_search&utm_source=A1HR7D-cXuiUdMXadx5pVQ", "review_count": 642, "categories": [{"alias": "bars", "title": "Bars"}, {"alias": "comfortfood", "title": "Comfort Food"}], "rating": 3.5, "coordinates": {"latitude": 37.79288, "longitude": -122.39221}, "transactions": [], "price": "$$", "location": {"address1": "155 Steuart St", "address2": "", "address3": "", "city": "San Francisco", "zip_code": "94105", "country": "US", "state": "CA", "display_address": ["155 Steuart St", "San Francisco, CA 94105"]}, "phone": "+14154956500", "display_phone": "(415) 495-6500", "distance": 5269.9786378711215}, {"id": "beso-bistronomia-san-francisco-6", "name": "Beso Bistronomia", "image_url": "https://s3-media3.fl.yelpcdn.com/bphoto/TteUjK0KPzZ49mxs0_Nk9A/o.jpg", "is_closed": false, "url": "https://www.yelp.com/biz/beso-bistronomia-san-francisco-6?adjust_creative=A1HR7D-cXuiUdMXadx5pVQ&utm_campaign=yelp_api_v3&utm_medium=api_v3_business_search&utm_source=A1HR7D-cXuiUdMXadx5pVQ", "review_count": 321, "categories": [{"alias": "tapasmallplates", "title": "Tapas/Small Plates"}, {"alias": "spanish", "title": "Spanish"}, {"alias": "breakfast_brunch", "title": "Breakfast & Brunch"}], "rating": 4.0, "coordinates": {"latitude": 37.7611599, "longitude": -122.43414}, "transactions": ["pickup"], "price": "$$", "location": {"address1": "4058A 18th St", "address2": "", "address3": "", "city": "San Francisco", "zip_code": "94114", "country": "US", "state": "CA", "display_address": ["4058A 18th St", "San Francisco, CA 94114"]}, "phone": "+14158015392", "display_phone": "(415) 801-5392", "distance": 208.8692299243}, {"id": "the-ramen-bar-san-francisco", "name": "The Ramen Bar", "image_url": "https://s3-media1.fl.yelpcdn.com/bphoto/J73NiWfGvXslEK2EMIPSbA/o.jpg", "is_closed": false, "url": "https://www.yelp.com/biz/the-ramen-bar-san-francisco?adjust_creative=A1HR7D-cXuiUdMXadx5pVQ&utm_campaign=yelp_api_v3&utm_medium=api_v3_business_search&utm_source=A1HR7D-cXuiUdMXadx5pVQ", "review_count": 543, "categories": [{"alias": "ramen", "title": "Ramen"}, {"alias": "noodles", "title": "Noodles"}], "rating": 3.0, "coordinates": {"latitude": 37.7928767316552, "longitude": -122.397905081563}, "transactions": ["pickup"], "price": "$$", "location": {"address1": "101 California St", "address2": null, "address3": "", "city": "San Francisco", "zip_code": "94111", "country": "US", "state": "CA", "display_address": ["101 California St", "San Francisco, CA 94111"]}, "phone": "+14156841570", "display_phone": "(415) 684-1570", "distance": 4910.971270243852}, {"id": "eightea-san-francisco", "name": "Eightea", "image_url": "https://s3-media2.fl.yelpcdn.com/bphoto/G00hd7_n_DiH5WK-e4sejQ/o.jpg", "is_closed": false, "url": "https://www.yelp.com/biz/eightea-san-francisco?adjust_creative=A1HR7D-cXuiUdMXadx5pVQ&utm_campaign=yelp_api_v3&utm_medium=api_v3_business_search&utm_source=A1HR7D-cXuiUdMXadx5pVQ", "review_count": 13, "categories": [{"alias": "hotdogs", "title": "Fast Food"}, {"alias": "hkcafe", "title": "Hong Kong Style Cafe"}, {"alias": "bubbletea", "title": "Bubble Tea"}], "rating": 4.0, "coordinates": {"latitude": 37.7812355, "longitude": -122.4087739}, "transactions": ["delivery", "pickup"], "location": {"address1": "91 6th St", "address2": null, "address3": "", "city": "San Francisco", "zip_code": "94103", "country": "US", "state": "CA", "display_address": ["91 6th St", "San Francisco, CA 94103"]}, "phone": "+14156587471", "display_phone": "(415) 658-7471", "distance": 3317.9975328752475}, {"id": "jones-san-francisco-3", "name": "Jones", "image_url": "https://s3-media3.fl.yelpcdn.com/bphoto/OIpuTiDJ8DjLp97DH1RDYw/o.jpg", "is_closed": false, "url": "https://www.yelp.com/biz/jones-san-francisco-3?adjust_creative=A1HR7D-cXuiUdMXadx5pVQ&utm_campaign=yelp_api_v3&utm_medium=api_v3_business_search&utm_source=A1HR7D-cXuiUdMXadx5pVQ", "review_count": 944, "categories": [{"alias": "newamerican", "title": "American (New)"}, {"alias": "bars", "title": "Bars"}, {"alias": "venues", "title": "Venues & Event Spaces"}], "rating": 3.5, "coordinates": {"latitude": 37.7869534, "longitude": -122.4130054}, "transactions": [], "price": "$$", "location": {"address1": "620 Jones St", "address2": "", "address3": "", "city": "San Francisco", "zip_code": "94102", "country": "US", "state": "CA", "display_address": ["620 Jones St", "San Francisco, CA 94102"]}, "phone": "+14154966858", "display_phone": "(415) 496-6858", "distance": 3555.00192349916}, {"id": "wow-naan-n-curry-san-francisco", "name": "Wow Naan N Curry", "image_url": "https://s3-media3.fl.yelpcdn.com/bphoto/EEgIzLK05Ae5c7uf43L2hQ/o.jpg", "is_closed": false, "url": "https://www.yelp.com/biz/wow-naan-n-curry-san-francisco?adjust_creative=A1HR7D-cXuiUdMXadx5pVQ&utm_campaign=yelp_api_v3&utm_medium=api_v3_business_search&utm_source=A1HR7D-cXuiUdMXadx5pVQ", "review_count": 1261, "categories": [{"alias": "indpak", "title": "Indian"}, {"alias": "pakistani", "title": "Pakistani"}], "rating": 3.0, "coordinates": {"latitude": 37.76427, "longitude": -122.46497}, "transactions": ["delivery", "pickup", "restaurant_reservation"], "price": "$", "location": {"address1": "642 Irving St", "address2": null, "address3": "", "city": "San Francisco", "zip_code": "94122", "country": "US", "state": "CA", "display_address": ["642 Irving St", "San Francisco, CA 94122"]}, "phone": "+14156647225", "display_phone": "(415) 664-7225", "distance": 2528.494542053688}, {"id": "canton-seafood-and-dim-sum-restaurant-san-francisco", "name": "Canton Seafood & Dim Sum Restaurant", "image_url": "https://s3-media1.fl.yelpcdn.com/bphoto/YQdJSCB_50XaqHGk_blbEA/o.jpg", "is_closed": false, "url": "https://www.yelp.com/biz/canton-seafood-and-dim-sum-restaurant-san-francisco?adjust_creative=A1HR7D-cXuiUdMXadx5pVQ&utm_campaign=yelp_api_v3&utm_medium=api_v3_business_search&utm_source=A1HR7D-cXuiUdMXadx5pVQ", "review_count": 643, "categories": [{"alias": "dimsum", "title": "Dim Sum"}, {"alias": "seafood", "title": "Seafood"}, {"alias": "cantonese", "title": "Cantonese"}], "rating": 3.5, "coordinates": {"latitude": 37.7843742370605, "longitude": -122.397773742676}, "transactions": ["restaurant_reservation"], "price": "$$", "location": {"address1": "655 Folsom St", "address2": "", "address3": "", "city": "San Francisco", "zip_code": "94107", "country": "US", "state": "CA", "display_address": ["655 Folsom St", "San Francisco, CA 94107"]}, "phone": "+14154953064", "display_phone": "(415) 495-3064", "distance": 4284.7772606742155}, {"id": "tower-burger-san-francisco", "name": "Tower Burger", "image_url": "https://s3-media4.fl.yelpcdn.com/bphoto/fy8uwmUdULnfwRH-ms7Yvg/o.jpg", "is_closed": false, "url": "https://www.yelp.com/biz/tower-burger-san-francisco?adjust_creative=A1HR7D-cXuiUdMXadx5pVQ&utm_campaign=yelp_api_v3&utm_medium=api_v3_business_search&utm_source=A1HR7D-cXuiUdMXadx5pVQ", "review_count": 310, "categories": [{"alias": "burgers", "title": "Burgers"}, {"alias": "tradamerican", "title": "American (Traditional)"}], "rating": 3.5, "coordinates": {"latitude": 37.743953704834, "longitude": -122.453437805176}, "transactions": [], "price": "$$", "location": {"address1": "729 Portola Dr", "address2": "", "address3": "", "city": "San Francisco", "zip_code": "94127", "country": "US", "state": "CA", "display_address": ["729 Portola Dr", "San Francisco, CA 94127"]}, "phone": "+14155046340", "display_phone": "(415) 504-6340", "distance": 2404.563149738032}, {"id": "big-mouth-burgers-san-francisco", "name": "Big Mouth Burgers", "image_url": "https://s3-media2.fl.yelpcdn.com/bphoto/tSIhKVD3nvKqybUpzSPQdQ/o.jpg", "is_closed": false, "url": "https://www.yelp.com/biz/big-mouth-burgers-san-francisco?adjust_creative=A1HR7D-cXuiUdMXadx5pVQ&utm_campaign=yelp_api_v3&utm_medium=api_v3_business_search&utm_source=A1HR7D-cXuiUdMXadx5pVQ", "review_count": 487, "categories": [{"alias": "burgers", "title": "Burgers"}], "rating": 3.5, "coordinates": {"latitude": 37.752250817471, "longitude": -122.42045135982}, "transactions": ["delivery", "pickup"], "price": "$", "location": {"address1": "3392 24th St", "address2": "", "address3": "", "city": "San Francisco", "zip_code": "94110", "country": "US", "state": "CA", "display_address": ["3392 24th St", "San Francisco, CA 94110"]}, "phone": "+14158214821", "display_phone": "(415) 821-4821", "distance": 1703.6178793544261}, {"id": "okoze-sushi-san-francisco", "name": "Okoze Sushi", "image_url": "https://s3-media2.fl.yelpcdn.com/bphoto/epYqe4-8YK8tYaL5ZQK2Nw/o.jpg", "is_closed": false, "url": "https://www.yelp.com/biz/okoze-sushi-san-francisco?adjust_creative=A1HR7D-cXuiUdMXadx5pVQ&utm_campaign=yelp_api_v3&utm_medium=api_v3_business_search&utm_source=A1HR7D-cXuiUdMXadx5pVQ", "review_count": 608, "categories": [{"alias": "sushi", "title": "Sushi Bars"}, {"alias": "japanese", "title": "Japanese"}, {"alias": "tapasmallplates", "title": "Tapas/Small Plates"}], "rating": 4.0, "coordinates": {"latitude": 37.79899, "longitude": -122.41929}, "transactions": [], "price": "$$$", "location": {"address1": "1207 Union St", "address2": "", "address3": "", "city": "San Francisco", "zip_code": "94109", "country": "US", "state": "CA", "display_address": ["1207 Union St", "San Francisco, CA 94109"]}, "phone": "+14155673397", "display_phone": "(415) 567-3397", "distance": 4496.881238731878}, {"id": "anchor-and-hope-san-francisco", "name": "Anchor & Hope", "image_url": "https://s3-media2.fl.yelpcdn.com/bphoto/m6G4CK4hbDpxj6ZofPf-Dg/o.jpg", "is_closed": false, "url": "https://www.yelp.com/biz/anchor-and-hope-san-francisco?adjust_creative=A1HR7D-cXuiUdMXadx5pVQ&utm_campaign=yelp_api_v3&utm_medium=api_v3_business_search&utm_source=A1HR7D-cXuiUdMXadx5pVQ", "review_count": 1403, "categories": [{"alias": "seafood", "title": "Seafood"}, {"alias": "wine_bars", "title": "Wine Bars"}], "rating": 3.5, "coordinates": {"latitude": 37.78775, "longitude": -122.39877}, "transactions": [], "price": "$$$", "location": {"address1": "83 Minna St", "address2": "", "address3": "", "city": "San Francisco", "zip_code": "94105", "country": "US", "state": "CA", "display_address": ["83 Minna St", "San Francisco, CA 94105"]}, "phone": "+14155019100", "display_phone": "(415) 501-9100", "distance": 4459.28405700492}, {"id": "new-d-and-a-cafe-san-francisco", "name": "New D & A Cafe", "image_url": "https://s3-media3.fl.yelpcdn.com/bphoto/BB6FyRsKxTDDkPi5uJnjCg/o.jpg", "is_closed": false, "url": "https://www.yelp.com/biz/new-d-and-a-cafe-san-francisco?adjust_creative=A1HR7D-cXuiUdMXadx5pVQ&utm_campaign=yelp_api_v3&utm_medium=api_v3_business_search&utm_source=A1HR7D-cXuiUdMXadx5pVQ", "review_count": 602, "categories": [{"alias": "cantonese", "title": "Cantonese"}, {"alias": "seafood", "title": "Seafood"}, {"alias": "hkcafe", "title": "Hong Kong Style Cafe"}], "rating": 3.0, "coordinates": {"latitude": 37.7827377319336, "longitude": -122.46361541748}, "transactions": [], "price": "$", "location": {"address1": "407 Clement St", "address2": "", "address3": "", "city": "San Francisco", "zip_code": "94118", "country": "US", "state": "CA", "display_address": ["407 Clement St", "San Francisco, CA 94118"]}, "phone": "+14156687883", "display_phone": "(415) 668-7883", "distance": 3410.2069750032038}, {"id": "central-kitchen-san-francisco", "name": "Central Kitchen", "image_url": "https://s3-media3.fl.yelpcdn.com/bphoto/ZrLFnrmBJtXzz59tp83vtg/o.jpg", "is_closed": false, "url": "https://www.yelp.com/biz/central-kitchen-san-francisco?adjust_creative=A1HR7D-cXuiUdMXadx5pVQ&utm_campaign=yelp_api_v3&utm_medium=api_v3_business_search&utm_source=A1HR7D-cXuiUdMXadx5pVQ", "review_count": 497, "categories": [{"alias": "newamerican", "title": "American (New)"}], "rating": 3.5, "coordinates": {"latitude": 37.7593000738031, "longitude": -122.41113228136}, "transactions": [], "price": "$$$", "location": {"address1": "3000 20th St", "address2": "", "address3": "", "city": "San Francisco", "zip_code": "94110", "country": "US", "state": "CA", "display_address": ["3000 20th St", "San Francisco, CA 94110"]}, "phone": "+14158267004", "display_phone": "(415) 826-7004", "distance": 2232.487629855254}, {"id": "stem-kitchen-and-garden-san-francisco", "name": "Stem Kitchen & Garden", "image_url": "https://s3-media4.fl.yelpcdn.com/bphoto/h0io5hsAB2x4Bft9Pg3qeg/o.jpg", "is_closed": false, "url": "https://www.yelp.com/biz/stem-kitchen-and-garden-san-francisco?adjust_creative=A1HR7D-cXuiUdMXadx5pVQ&utm_campaign=yelp_api_v3&utm_medium=api_v3_business_search&utm_source=A1HR7D-cXuiUdMXadx5pVQ", "review_count": 311, "categories": [{"alias": "newamerican", "title": "American (New)"}, {"alias": "mediterranean", "title": "Mediterranean"}, {"alias": "bars", "title": "Bars"}], "rating": 3.5, "coordinates": {"latitude": 37.7659063, "longitude": -122.3874446}, "transactions": ["restaurant_reservation"], "price": "$$", "location": {"address1": "499 Illinois St", "address2": "", "address3": "", "city": "San Francisco", "zip_code": "94158", "country": "US", "state": "CA", "display_address": ["499 Illinois St", "San Francisco, CA 94158"]}, "phone": "+14159151000", "display_phone": "(415) 915-1000", "distance": 4343.38103897375}, {"id": "glaze-teriyaki-san-francisco-3", "name": "Glaze Teriyaki", "image_url": "https://s3-media2.fl.yelpcdn.com/bphoto/uvklaXmgqDyakFxM8646UQ/o.jpg", "is_closed": false, "url": "https://www.yelp.com/biz/glaze-teriyaki-san-francisco-3?adjust_creative=A1HR7D-cXuiUdMXadx5pVQ&utm_campaign=yelp_api_v3&utm_medium=api_v3_business_search&utm_source=A1HR7D-cXuiUdMXadx5pVQ", "review_count": 399, "categories": [{"alias": "japanese", "title": "Japanese"}, {"alias": "korean", "title": "Korean"}, {"alias": "gluten_free", "title": "Gluten-Free"}], "rating": 4.0, "coordinates": {"latitude": 37.7879022, "longitude": -122.433527}, "transactions": ["delivery", "pickup"], "price": "$$", "location": {"address1": "1946 Fillmore St", "address2": "", "address3": "", "city": "San Francisco", "zip_code": "94115", "country": "US", "state": "CA", "display_address": ["1946 Fillmore St", "San Francisco, CA 94115"]}, "phone": "+14155902199", "display_phone": "(415) 590-2199", "distance": 3013.5215212303638}, {"id": "kates-kitchen-san-francisco", "name": "Kate's Kitchen", "image_url": "https://s3-media2.fl.yelpcdn.com/bphoto/PmY0A5Dzlnt08rXA5BfZ2g/o.jpg", "is_closed": false, "url": "https://www.yelp.com/biz/kates-kitchen-san-francisco?adjust_creative=A1HR7D-cXuiUdMXadx5pVQ&utm_campaign=yelp_api_v3&utm_medium=api_v3_business_search&utm_source=A1HR7D-cXuiUdMXadx5pVQ", "review_count": 779, "categories": [{"alias": "breakfast_brunch", "title": "Breakfast & Brunch"}, {"alias": "tradamerican", "title": "American (Traditional)"}], "rating": 3.5, "coordinates": {"latitude": 37.77205, "longitude": -122.42989}, "transactions": ["pickup"], "price": "$$", "location": {"address1": "471 Haight St", "address2": "", "address3": "", "city": "San Francisco", "zip_code": "94117", "country": "US", "state": "CA", "display_address": ["471 Haight St", "San Francisco, CA 94117"]}, "phone": "+14156263984", "display_phone": "(415) 626-3984", "distance": 1359.917867423646}, {"id": "la-mediterranee-san-francisco-7", "name": "La Mediterranee", "image_url": "https://s3-media2.fl.yelpcdn.com/bphoto/QHDz4PFu1g2LZNsMPbHq1w/o.jpg", "is_closed": false, "url": "https://www.yelp.com/biz/la-mediterranee-san-francisco-7?adjust_creative=A1HR7D-cXuiUdMXadx5pVQ&utm_campaign=yelp_api_v3&utm_medium=api_v3_business_search&utm_source=A1HR7D-cXuiUdMXadx5pVQ", "review_count": 531, "categories": [{"alias": "mediterranean", "title": "Mediterranean"}, {"alias": "mideastern", "title": "Middle Eastern"}, {"alias": "breakfast_brunch", "title": "Breakfast & Brunch"}], "rating": 4.0, "coordinates": {"latitude": 37.764506977694, "longitude": -122.43329744268}, "transactions": ["pickup", "delivery"], "price": "$$", "location": {"address1": "288 Noe St", "address2": "", "address3": "", "city": "San Francisco", "zip_code": "94114", "country": "US", "state": "CA", "display_address": ["288 Noe St", "San Francisco, CA 94114"]}, "phone": "+14154317210", "display_phone": "(415) 431-7210", "distance": 487.419357554934}, {"id": "kung-food-san-francisco", "name": "Kung Food", "image_url": "https://s3-media1.fl.yelpcdn.com/bphoto/kCvy4mCRR6RzoNZgxGRvxA/o.jpg", "is_closed": false, "url": "https://www.yelp.com/biz/kung-food-san-francisco?adjust_creative=A1HR7D-cXuiUdMXadx5pVQ&utm_campaign=yelp_api_v3&utm_medium=api_v3_business_search&utm_source=A1HR7D-cXuiUdMXadx5pVQ", "review_count": 344, "categories": [{"alias": "chinese", "title": "Chinese"}], "rating": 4.0, "coordinates": {"latitude": 37.7776557732483, "longitude": -122.438782954299}, "transactions": ["delivery", "pickup"], "price": "$", "location": {"address1": "1615 McAllister St", "address2": "", "address3": "", "city": "San Francisco", "zip_code": "94115", "country": "US", "state": "CA", "display_address": ["1615 McAllister St", "San Francisco, CA 94115"]}, "phone": "+14156736688", "display_phone": "(415) 673-6688", "distance": 1874.500524564272}, {"id": "uncle-vitos-pizza-san-francisco", "name": "Uncle Vito's Pizza", "image_url": "https://s3-media2.fl.yelpcdn.com/bphoto/VKDPU5DE78LZY8dN_FCmaw/o.jpg", "is_closed": false, "url": "https://www.yelp.com/biz/uncle-vitos-pizza-san-francisco?adjust_creative=A1HR7D-cXuiUdMXadx5pVQ&utm_campaign=yelp_api_v3&utm_medium=api_v3_business_search&utm_source=A1HR7D-cXuiUdMXadx5pVQ", "review_count": 1028, "categories": [{"alias": "pizza", "title": "Pizza"}, {"alias": "italian", "title": "Italian"}], "rating": 4.0, "coordinates": {"latitude": 37.7902711, "longitude": -122.4089926}, "transactions": ["delivery"], "price": "$$", "location": {"address1": "700 Bush St", "address2": "", "address3": "", "city": "San Francisco", "zip_code": "94108", "country": "US", "state": "CA", "display_address": ["700 Bush St", "San Francisco, CA 94108"]}, "phone": "+14153915008", "display_phone": "(415) 391-5008", "distance": 4065.629880095232}, {"id": "koh-samui-and-the-monkey-san-francisco-2", "name": "Koh Samui & The Monkey", "image_url": "https://s3-media3.fl.yelpcdn.com/bphoto/X8Sp9OZ2fnva2sHBmdnzQg/o.jpg", "is_closed": false, "url": "https://www.yelp.com/biz/koh-samui-and-the-monkey-san-francisco-2?adjust_creative=A1HR7D-cXuiUdMXadx5pVQ&utm_campaign=yelp_api_v3&utm_medium=api_v3_business_search&utm_source=A1HR7D-cXuiUdMXadx5pVQ", "review_count": 1036, "categories": [{"alias": "thai", "title": "Thai"}], "rating": 3.5, "coordinates": {"latitude": 37.779654, "longitude": -122.394311}, "transactions": ["pickup", "delivery"], "price": "$$", "location": {"address1": "415 Brannan St", "address2": "", "address3": "", "city": "San Francisco", "zip_code": "94107", "country": "US", "state": "CA", "display_address": ["415 Brannan St", "San Francisco, CA 94107"]}, "phone": "+14153690007", "display_phone": "(415) 369-0007", "distance": 4250.381835610619}, {"id": "louies-gen-gen-room-san-francisco", "name": "Louie's Gen-Gen Room", "image_url": "https://s3-media4.fl.yelpcdn.com/bphoto/HE9pHAQZg4rZdTGxBi_IXA/o.jpg", "is_closed": false, "url": "https://www.yelp.com/biz/louies-gen-gen-room-san-francisco?adjust_creative=A1HR7D-cXuiUdMXadx5pVQ&utm_campaign=yelp_api_v3&utm_medium=api_v3_business_search&utm_source=A1HR7D-cXuiUdMXadx5pVQ", "review_count": 126, "categories": [{"alias": "cocktailbars", "title": "Cocktail Bars"}, {"alias": "wine_bars", "title": "Wine Bars"}, {"alias": "newamerican", "title": "American (New)"}], "rating": 4.5, "coordinates": {"latitude": 37.7881799, "longitude": -122.41458}, "transactions": ["restaurant_reservation"], "price": "$$", "location": {"address1": "871 Sutter St", "address2": "", "address3": "", "city": "San Francisco", "zip_code": "94109", "country": "US", "state": "CA", "display_address": ["871 Sutter St", "San Francisco, CA 94109"]}, "phone": "+14154405446", "display_phone": "(415) 440-5446", "distance": 3595.3596603628757}, {"id": "north-beach-restaurant-san-francisco", "name": "North Beach Restaurant", "image_url": "https://s3-media4.fl.yelpcdn.com/bphoto/yBhceiDBlU3wUHkvBmpHbQ/o.jpg", "is_closed": false, "url": "https://www.yelp.com/biz/north-beach-restaurant-san-francisco?adjust_creative=A1HR7D-cXuiUdMXadx5pVQ&utm_campaign=yelp_api_v3&utm_medium=api_v3_business_search&utm_source=A1HR7D-cXuiUdMXadx5pVQ", "review_count": 685, "categories": [{"alias": "italian", "title": "Italian"}], "rating": 3.5, "coordinates": {"latitude": 37.7997730225309, "longitude": -122.408903988361}, "transactions": ["restaurant_reservation"], "price": "$$$", "location": {"address1": "1512 Stockton St", "address2": "", "address3": "", "city": "San Francisco", "zip_code": "94133", "country": "US", "state": "CA", "display_address": ["1512 Stockton St", "San Francisco, CA 94133"]}, "phone": "+14153921700", "display_phone": "(415) 392-1700", "distance": 4954.168827550148}, {"id": "the-mina-test-kitchen-san-francisco", "name": "The MINA Test Kitchen", "image_url": "https://s3-media3.fl.yelpcdn.com/bphoto/JDdXy757VYZcQbQ5Zt8PVg/o.jpg", "is_closed": false, "url": "https://www.yelp.com/biz/the-mina-test-kitchen-san-francisco?adjust_creative=A1HR7D-cXuiUdMXadx5pVQ&utm_campaign=yelp_api_v3&utm_medium=api_v3_business_search&utm_source=A1HR7D-cXuiUdMXadx5pVQ", "review_count": 232, "categories": [{"alias": "popuprestaurants", "title": "Pop-Up Restaurants"}, {"alias": "newmexican", "title": "New Mexican Cuisine"}], "rating": 4.0, "coordinates": {"latitude": 37.79922, "longitude": -122.43548}, "transactions": [], "price": "$$$", "location": {"address1": "2120 Greenwich St", "address2": "", "address3": "", "city": "San Francisco", "zip_code": "94123", "country": "US", "state": "CA", "display_address": ["2120 Greenwich St", "San Francisco, CA 94123"]}, "phone": "+14156255469", "display_phone": "(415) 625-5469", "distance": 4259.556022155615}, {"id": "barcha-san-francisco", "name": "Barcha", "image_url": "https://s3-media3.fl.yelpcdn.com/bphoto/4iguc--LmeUxxuEJCmJdaQ/o.jpg", "is_closed": false, "url": "https://www.yelp.com/biz/barcha-san-francisco?adjust_creative=A1HR7D-cXuiUdMXadx5pVQ&utm_campaign=yelp_api_v3&utm_medium=api_v3_business_search&utm_source=A1HR7D-cXuiUdMXadx5pVQ", "review_count": 256, "categories": [{"alias": "mediterranean", "title": "Mediterranean"}, {"alias": "tapasmallplates", "title": "Tapas/Small Plates"}], "rating": 4.0, "coordinates": {"latitude": 37.7909966558218, "longitude": -122.397482693195}, "transactions": ["restaurant_reservation"], "price": "$$", "location": {"address1": "28 Fremont St", "address2": "", "address3": "", "city": "San Francisco", "zip_code": "94105", "country": "US", "state": "CA", "display_address": ["28 Fremont St", "San Francisco, CA 94105"]}, "phone": "+14159575463", "display_phone": "(415) 957-5463", "distance": 4791.370780687961}, {"id": "thep-phanom-thai-restaurant-san-francisco-2", "name": "Thep Phanom Thai Restaurant", "image_url": "https://s3-media3.fl.yelpcdn.com/bphoto/YS87YVYIO3S8oz_TaMfvBw/o.jpg", "is_closed": false, "url": "https://www.yelp.com/biz/thep-phanom-thai-restaurant-san-francisco-2?adjust_creative=A1HR7D-cXuiUdMXadx5pVQ&utm_campaign=yelp_api_v3&utm_medium=api_v3_business_search&utm_source=A1HR7D-cXuiUdMXadx5pVQ", "review_count": 417, "categories": [{"alias": "thai", "title": "Thai"}], "rating": 3.5, "coordinates": {"latitude": 37.7713922, "longitude": -122.4304127}, "transactions": ["delivery", "pickup"], "price": "$$", "location": {"address1": "400 Waller St", "address2": "", "address3": "", "city": "San Francisco", "zip_code": "94117", "country": "US", "state": "CA", "display_address": ["400 Waller St", "San Francisco, CA 94117"]}, "phone": "+14154312526", "display_phone": "(415) 431-2526", "distance": 1281.662376907324}, {"id": "dunya-bistro-san-francisco", "name": "Dunya Bistro", "image_url": "https://s3-media3.fl.yelpcdn.com/bphoto/0BRZI9DxqeyP1tjXmbFMLw/o.jpg", "is_closed": false, "url": "https://www.yelp.com/biz/dunya-bistro-san-francisco?adjust_creative=A1HR7D-cXuiUdMXadx5pVQ&utm_campaign=yelp_api_v3&utm_medium=api_v3_business_search&utm_source=A1HR7D-cXuiUdMXadx5pVQ", "review_count": 469, "categories": [{"alias": "mediterranean", "title": "Mediterranean"}, {"alias": "wine_bars", "title": "Wine Bars"}], "rating": 4.0, "coordinates": {"latitude": 37.79165, "longitude": -122.42111}, "transactions": ["restaurant_reservation"], "price": "$$", "location": {"address1": "1609 Polk St", "address2": "", "address3": "", "city": "San Francisco", "zip_code": "94109", "country": "US", "state": "CA", "display_address": ["1609 Polk St", "San Francisco, CA 94109"]}, "phone": "+14154005770", "display_phone": "(415) 400-5770", "distance": 3678.254045426682}, {"id": "grumpys-american-pub-san-francisco", "name": "Grumpy's American Pub", "image_url": "https://s3-media2.fl.yelpcdn.com/bphoto/l134ae99z0jIqzP4-xFY9w/o.jpg", "is_closed": false, "url": "https://www.yelp.com/biz/grumpys-american-pub-san-francisco?adjust_creative=A1HR7D-cXuiUdMXadx5pVQ&utm_campaign=yelp_api_v3&utm_medium=api_v3_business_search&utm_source=A1HR7D-cXuiUdMXadx5pVQ", "review_count": 318, "categories": [{"alias": "pubs", "title": "Pubs"}, {"alias": "tradamerican", "title": "American (Traditional)"}], "rating": 4.0, "coordinates": {"latitude": 37.79948, "longitude": -122.40057}, "transactions": ["pickup"], "price": "$$", "location": {"address1": "125 Vallejo St", "address2": "", "address3": "", "city": "San Francisco", "zip_code": "94111", "country": "US", "state": "CA", "display_address": ["125 Vallejo St", "San Francisco, CA 94111"]}, "phone": "+14154343350", "display_phone": "(415) 434-3350", "distance": 5322.194586666902}, {"id": "city-view-restaurant-san-francisco", "name": "City View Restaurant", "image_url": "https://s3-media1.fl.yelpcdn.com/bphoto/_DTGbhykLHSlQ_zsyUOg0A/o.jpg", "is_closed": false, "url": "https://www.yelp.com/biz/city-view-restaurant-san-francisco?adjust_creative=A1HR7D-cXuiUdMXadx5pVQ&utm_campaign=yelp_api_v3&utm_medium=api_v3_business_search&utm_source=A1HR7D-cXuiUdMXadx5pVQ", "review_count": 1073, "categories": [{"alias": "dimsum", "title": "Dim Sum"}, {"alias": "cantonese", "title": "Cantonese"}], "rating": 3.5, "coordinates": {"latitude": 37.7943, "longitude": -122.40409}, "transactions": [], "price": "$$", "location": {"address1": "662 Commercial St", "address2": "", "address3": "", "city": "San Francisco", "zip_code": "94111", "country": "US", "state": "CA", "display_address": ["662 Commercial St", "San Francisco, CA 94111"]}, "phone": "+14153982838", "display_phone": "(415) 398-2838", "distance": 4669.949135916763}, {"id": "the-sarap-shop-san-francisco", "name": "The Sarap Shop", "image_url": "https://s3-media3.fl.yelpcdn.com/bphoto/koDkyKWCFXa-qLqmaQJV6Q/o.jpg", "is_closed": false, "url": "https://www.yelp.com/biz/the-sarap-shop-san-francisco?adjust_creative=A1HR7D-cXuiUdMXadx5pVQ&utm_campaign=yelp_api_v3&utm_medium=api_v3_business_search&utm_source=A1HR7D-cXuiUdMXadx5pVQ", "review_count": 41, "categories": [{"alias": "foodtrucks", "title": "Food Trucks"}, {"alias": "filipino", "title": "Filipino"}, {"alias": "comfortfood", "title": "Comfort Food"}], "rating": 4.5, "coordinates": {"latitude": 37.76985, "longitude": -122.41175}, "transactions": ["pickup"], "price": "$$", "location": {"address1": "428 11th St", "address2": "", "address3": null, "city": "San Francisco", "zip_code": "94103", "country": "US", "state": "CA", "display_address": ["428 11th St", "San Francisco, CA 94103"]}, "phone": "+14159354785", "display_phone": "(415) 935-4785", "distance": 2360.524575809704}, {"id": "smashburger-san-francisco-2", "name": "Smashburger", "image_url": "https://s3-media2.fl.yelpcdn.com/bphoto/Q4rpxiK_XTY85SjgHBOxSQ/o.jpg", "is_closed": false, "url": "https://www.yelp.com/biz/smashburger-san-francisco-2?adjust_creative=A1HR7D-cXuiUdMXadx5pVQ&utm_campaign=yelp_api_v3&utm_medium=api_v3_business_search&utm_source=A1HR7D-cXuiUdMXadx5pVQ", "review_count": 333, "categories": [{"alias": "burgers", "title": "Burgers"}], "rating": 3.5, "coordinates": {"latitude": 37.7662174804428, "longitude": -122.407808706329}, "transactions": [], "price": "$", "location": {"address1": "2300 16th St", "address2": "Ste 293", "address3": "", "city": "San Francisco", "zip_code": "94103", "country": "US", "state": "CA", "display_address": ["2300 16th St", "Ste 293", "San Francisco, CA 94103"]}, "phone": "+14158902410", "display_phone": "(415) 890-2410", "distance": 2585.966719369582}, {"id": "el-farolito-san-francisco-4", "name": "El Farolito", "image_url": "https://s3-media1.fl.yelpcdn.com/bphoto/6kyjmLKVmKGjAJhYWc1Z7g/o.jpg", "is_closed": false, "url": "https://www.yelp.com/biz/el-farolito-san-francisco-4?adjust_creative=A1HR7D-cXuiUdMXadx5pVQ&utm_campaign=yelp_api_v3&utm_medium=api_v3_business_search&utm_source=A1HR7D-cXuiUdMXadx5pVQ", "review_count": 740, "categories": [{"alias": "mexican", "title": "Mexican"}, {"alias": "breakfast_brunch", "title": "Breakfast & Brunch"}, {"alias": "beerbar", "title": "Beer Bar"}], "rating": 4.0, "coordinates": {"latitude": 37.75285, "longitude": -122.41113}, "transactions": [], "price": "$", "location": {"address1": "2950 24th St", "address2": "", "address3": "", "city": "San Francisco", "zip_code": "94110", "country": "US", "state": "CA", "display_address": ["2950 24th St", "San Francisco, CA 94110"]}, "phone": "+14156410758", "display_phone": "(415) 641-0758", "distance": 2397.017597892164}, {"id": "miki-restaurant-san-francisco", "name": "Miki Restaurant", "image_url": "https://s3-media1.fl.yelpcdn.com/bphoto/2oG4UNZ_Eba5AiwWtLjQcQ/o.jpg", "is_closed": false, "url": "https://www.yelp.com/biz/miki-restaurant-san-francisco?adjust_creative=A1HR7D-cXuiUdMXadx5pVQ&utm_campaign=yelp_api_v3&utm_medium=api_v3_business_search&utm_source=A1HR7D-cXuiUdMXadx5pVQ", "review_count": 439, "categories": [{"alias": "ramen", "title": "Ramen"}, {"alias": "noodles", "title": "Noodles"}], "rating": 4.0, "coordinates": {"latitude": 37.77547, "longitude": -122.49795}, "transactions": [], "price": "$$", "location": {"address1": "3639 Balboa St", "address2": "", "address3": "", "city": "San Francisco", "zip_code": "94121", "country": "US", "state": "CA", "display_address": ["3639 Balboa St", "San Francisco, CA 94121"]}, "phone": "+14153870874", "display_phone": "(415) 387-0874", "distance": 5643.108821776612}, {"id": "sichuan-home-san-francisco", "name": "Sichuan Home", "image_url": "https://s3-media4.fl.yelpcdn.com/bphoto/q0qEtWtgmaw0Re4z6dt8uQ/o.jpg", "is_closed": false, "url": "https://www.yelp.com/biz/sichuan-home-san-francisco?adjust_creative=A1HR7D-cXuiUdMXadx5pVQ&utm_campaign=yelp_api_v3&utm_medium=api_v3_business_search&utm_source=A1HR7D-cXuiUdMXadx5pVQ", "review_count": 348, "categories": [{"alias": "szechuan", "title": "Szechuan"}], "rating": 4.0, "coordinates": {"latitude": 37.7804022, "longitude": -122.4736572}, "transactions": ["pickup", "restaurant_reservation"], "price": "$$", "location": {"address1": "5037 Geary Blvd", "address2": "", "address3": "", "city": "San Francisco", "zip_code": "94118", "country": "US", "state": "CA", "display_address": ["5037 Geary Blvd", "San Francisco, CA 94118"]}, "phone": "+14152213288", "display_phone": "(415) 221-3288", "distance": 3923.7152282303277}, {"id": "grindz-san-francisco", "name": "Grindz", "image_url": "https://s3-media2.fl.yelpcdn.com/bphoto/AeQNPiIwcI4nGshOtQug7Q/o.jpg", "is_closed": false, "url": "https://www.yelp.com/biz/grindz-san-francisco?adjust_creative=A1HR7D-cXuiUdMXadx5pVQ&utm_campaign=yelp_api_v3&utm_medium=api_v3_business_search&utm_source=A1HR7D-cXuiUdMXadx5pVQ", "review_count": 735, "categories": [{"alias": "hawaiian", "title": "Hawaiian"}, {"alias": "breakfast_brunch", "title": "Breakfast & Brunch"}, {"alias": "asianfusion", "title": "Asian Fusion"}], "rating": 3.5, "coordinates": {"latitude": 37.78292, "longitude": -122.46833}, "transactions": ["pickup", "delivery"], "price": "$$", "location": {"address1": "832 Clement St", "address2": "", "address3": "", "city": "San Francisco", "zip_code": "94118", "country": "US", "state": "CA", "display_address": ["832 Clement St", "San Francisco, CA 94118"]}, "phone": "+14152214746", "display_phone": "(415) 221-4746", "distance": 3717.768496981768}, {"id": "ia-poke-san-francisco-6", "name": "I'a Poke", "image_url": "https://s3-media3.fl.yelpcdn.com/bphoto/ZxhxfGA0Kd2BXlmd-9CX1A/o.jpg", "is_closed": false, "url": "https://www.yelp.com/biz/ia-poke-san-francisco-6?adjust_creative=A1HR7D-cXuiUdMXadx5pVQ&utm_campaign=yelp_api_v3&utm_medium=api_v3_business_search&utm_source=A1HR7D-cXuiUdMXadx5pVQ", "review_count": 180, "categories": [{"alias": "poke", "title": "Poke"}, {"alias": "sushi", "title": "Sushi Bars"}], "rating": 4.0, "coordinates": {"latitude": 37.7658573, "longitude": -122.4289446}, "transactions": [], "price": "$$", "location": {"address1": "314 Church St", "address2": "", "address3": null, "city": "San Francisco", "zip_code": "94107", "country": "US", "state": "CA", "display_address": ["314 Church St", "San Francisco, CA 94107"]}, "phone": "+14158298030", "display_phone": "(415) 829-8030", "distance": 850.3529009799279}, {"id": "crawstation-san-francisco-3", "name": "Crawstation", "image_url": "https://s3-media3.fl.yelpcdn.com/bphoto/Aa3xTn1ffSqjEK3AI41LEA/o.jpg", "is_closed": false, "url": "https://www.yelp.com/biz/crawstation-san-francisco-3?adjust_creative=A1HR7D-cXuiUdMXadx5pVQ&utm_campaign=yelp_api_v3&utm_medium=api_v3_business_search&utm_source=A1HR7D-cXuiUdMXadx5pVQ", "review_count": 876, "categories": [{"alias": "seafood", "title": "Seafood"}, {"alias": "cajun", "title": "Cajun/Creole"}, {"alias": "breakfast_brunch", "title": "Breakfast & Brunch"}], "rating": 3.5, "coordinates": {"latitude": 37.76336, "longitude": -122.46593}, "transactions": ["pickup", "restaurant_reservation", "delivery"], "price": "$$", "location": {"address1": "1336 9th Ave", "address2": "", "address3": "", "city": "San Francisco", "zip_code": "94122", "country": "US", "state": "CA", "display_address": ["1336 9th Ave", "San Francisco, CA 94122"]}, "phone": "+14156829980", "display_phone": "(415) 682-9980", "distance": 2619.6402558250315}], "total": 4900, "region": {"center": {"longitude": -122.4364471436, "latitude": 37.7608993898}}}