{"businesses": [{"id": "chez-maman-san-francisco-9", "name": "Chez Maman", "image_url": "https://s3-media4.fl.yelpcdn.com/bphoto/gccHe5ofFMpNyh8vmS0VSw/o.jpg", "is_closed": false, "url": "https://www.yelp.com/biz/chez-maman-san-francisco-9?adjust_creative=A1HR7D-cXuiUdMXadx5pVQ&utm_campaign=yelp_api_v3&utm_medium=api_v3_business_search&utm_source=A1HR7D-cXuiUdMXadx5pVQ", "review_count": 1837, "categories": [{"alias": "french", "title": "French"}, {"alias": "burgers", "title": "Burgers"}, {"alias": "creperies", "title": "Creperies"}], "rating": 4.5, "coordinates": {"latitude": 37.7624388911845, "longitude": -122.396692272318}, "transactions": ["delivery", "pickup"], "price": "$$", "location": {"address1": "1401 18th St", "address2": "", "address3": "", "city": "San Francisco", "zip_code": "94107", "country": "US", "state": "CA", "display_address": ["1401 18th St", "San Francisco, CA 94107"]}, "phone": "+14156559542", "display_phone": "(415) 655-9542", "distance": 3498.9098421376257}, {"id": "noodle-in-a-haystack-san-francisco", "name": "Noodle in a Haystack", "image_url": "https://s3-media3.fl.yelpcdn.com/bphoto/0kGb7Y-ISLPGaf36MZhpfA/o.jpg", "is_closed": false, "url": "https://www.yelp.com/biz/noodle-in-a-haystack-san-francisco?adjust_creative=A1HR7D-cXuiUdMXadx5pVQ&utm_campaign=yelp_api_v3&utm_medium=api_v3_business_search&utm_source=A1HR7D-cXuiUdMXadx5pVQ", "review_count": 16, "categories": [{"alias": "ramen", "title": "Ramen"}, {"alias": "popuprestaurants", "title": "Pop-Up Restaurants"}], "rating": 5.0, "coordinates": {"latitude": 37.757438659668, "longitude": -122.419372558594}, "transactions": [], "price": "$$", "location": {"address1": "", "address2": "", "address3": "", "city": "San Francisco", "zip_code": "94110", "country": "US", "state": "CA", "display_address": ["San Francisco, CA 94110"]}, "phone": "", "display_phone": "", "distance": 2095.2551546105956}, {"id": "good-mong-kok-bakery-san-francisco", "name": "Good Mong Kok Bakery", "image_url": "https://s3-media2.fl.yelpcdn.com/bphoto/Wndwx-kui0DexPf3rcwz_A/o.jpg", "is_closed": false, "url": "https://www.yelp.com/biz/good-mong-kok-bakery-san-francisco?adjust_creative=A1HR7D-cXuiUdMXadx5pVQ&utm_campaign=yelp_api_v3&utm_medium=api_v3_business_search&utm_source=A1HR7D-cXuiUdMXadx5pVQ", "review_count": 1895, "categories": [{"alias": "bakeries", "title": "Bakeries"}, {"alias": "dimsum", "title": "Dim Sum"}, {"alias": "cantonese", "title": "Cantonese"}], "rating": 4.0, "coordinates": {"latitude": 37.7954584839809, "longitude": -122.408358365012}, "transactions": [], "price": "$", "location": {"address1": "1039 Stockton St", "address2": "", "address3": "", "city": "San Francisco", "zip_code": "94108", "country": "US", "state": "CA", "display_address": ["1039 Stockton St", "San Francisco, CA 94108"]}, "phone": "+14153972688", "display_phone": "(415) 397-2688", "distance": 4567.41004006984}, {"id": "little-skillet-san-francisco-2", "name": "Little Skillet", "image_url": "https://s3-media2.fl.yelpcdn.com/bphoto/YUDWzSXh9do4JsdNZYd2iw/o.jpg", "is_closed": false, "url": "https://www.yelp.com/biz/little-skillet-san-francisco-2?adjust_creative=A1HR7D-cXuiUdMXadx5pVQ&utm_campaign=yelp_api_v3&utm_medium=api_v3_business_search&utm_source=A1HR7D-cXuiUdMXadx5pVQ", "review_count": 1808, "categories": [{"alias": "soulfood", "title": "Soul Food"}], "rating": 4.0, "coordinates": {"latitude": 37.7788276672363, "longitude": -122.394065856934}, "transactions": ["delivery", "pickup"], "price": "$$", "location": {"address1": "360 Ritch St", "address2": "", "address3": "", "city": "San Francisco", "zip_code": "94107", "country": "US", "state": "CA", "display_address": ["360 Ritch St", "San Francisco, CA 94107"]}, "phone": "+14157772777", "display_phone": "(415) 777-2777", "distance": 4225.346959307756}, {"id": "fog-harbor-fish-house-san-francisco-2", "name": "Fog Harbor Fish House", "image_url": "https://s3-media1.fl.yelpcdn.com/bphoto/DemnQQ9M05jXzjD_cxF81A/o.jpg", "is_closed": false, "url": "https://www.yelp.com/biz/fog-harbor-fish-house-san-francisco-2?adjust_creative=A1HR7D-cXuiUdMXadx5pVQ&utm_campaign=yelp_api_v3&utm_medium=api_v3_business_search&utm_source=A1HR7D-cXuiUdMXadx5pVQ", "review_count": 3823, "categories": [{"alias": "seafood", "title": "Seafood"}, {"alias": "bars", "title": "Bars"}], "rating": 4.0, "coordinates": {"latitude": 37.80873, "longitude": -122.410428}, "transactions": [], "price": "$$", "location": {"address1": "Pier 39", "address2": "Ste A-202", "address3": "", "city": "San Francisco", "zip_code": "94133", "country": "US", "state": "CA", "display_address": ["Pier 39", "Ste A-202", "San Francisco, CA 94133"]}, "phone": "+14154212442", "display_phone": "(415) 421-2442", "distance": 5789.203322139542}, {"id": "the-snug-san-francisco", "name": "The Snug", "image_url": "https://s3-media2.fl.yelpcdn.com/bphoto/ILBwPmLC7lnkYhNLmjGlkA/o.jpg", "is_closed": false, "url": "https://www.yelp.com/biz/the-snug-san-francisco?adjust_creative=A1HR7D-cXuiUdMXadx5pVQ&utm_campaign=yelp_api_v3&utm_medium=api_v3_business_search&utm_source=A1HR7D-cXuiUdMXadx5pVQ", "review_count": 38, "categories": [{"alias": "cocktailbars", "title": "Cocktail Bars"}, {"alias": "tradamerican", "title": "American (Traditional)"}, {"alias": "pubs", "title": "Pubs"}], "rating": 4.0, "coordinates": {"latitude": 37.79094, "longitude": -122.43443}, "transactions": [], "price": "$$", "location": {"address1": "2301 Fillmore St", "address2": "", "address3": null, "city": "San Francisco", "zip_code": "94115", "country": "US", "state": "CA", "display_address": ["2301 Fillmore St", "San Francisco, CA 94115"]}, "phone": "+14155625092", "display_phone": "(415) 562-5092", "distance": 3342.88779581692}, {"id": "true-laurel-san-francisco-3", "name": "True Laurel", "image_url": "https://s3-media1.fl.yelpcdn.com/bphoto/w_XvnfNw3OX32r3n6ixKaA/o.jpg", "is_closed": false, "url": "https://www.yelp.com/biz/true-laurel-san-francisco-3?adjust_creative=A1HR7D-cXuiUdMXadx5pVQ&utm_campaign=yelp_api_v3&utm_medium=api_v3_business_search&utm_source=A1HR7D-cXuiUdMXadx5pVQ", "review_count": 30, "categories": [{"alias": "cocktailbars", "title": "Cocktail Bars"}, {"alias": "newamerican", "title": "American (New)"}, {"alias": "comfortfood", "title": "Comfort Food"}], "rating": 4.5, "coordinates": {"latitude": 37.75957, "longitude": -122.4114091}, "transactions": [], "price": "$$", "location": {"address1": "753 Alabama St", "address2": "", "address3": null, "city": "San Francisco", "zip_code": "94110", "country": "US", "state": "CA", "display_address": ["753 Alabama St", "San Francisco, CA 94110"]}, "phone": "+14153410020", "display_phone": "(415) 341-0020", "distance": 2203.0392544748697}, {"id": "golden-star-vietnamese-restaurant-san-francisco", "name": "Golden Star Vietnamese Restaurant", "image_url": "https://s3-media2.fl.yelpcdn.com/bphoto/12vRlFsOsUnu0NgGC7lOCw/o.jpg", "is_closed": false, "url": "https://www.yelp.com/biz/golden-star-vietnamese-restaurant-san-francisco?adjust_creative=A1HR7D-cXuiUdMXadx5pVQ&utm_campaign=yelp_api_v3&utm_medium=api_v3_business_search&utm_source=A1HR7D-cXuiUdMXadx5pVQ", "review_count": 1096, "categories": [{"alias": "vietnamese", "title": "Vietnamese"}, {"alias": "noodles", "title": "Noodles"}], "rating": 4.0, "coordinates": {"latitude": 37.7945505827665, "longitude": -122.405742555857}, "transactions": [], "price": "$", "location": {"address1": "11 Walter U Lum Pl", "address2": "", "address3": "", "city": "San Francisco", "zip_code": "94108", "country": "US", "state": "CA", "display_address": ["11 Walter U Lum Pl", "San Francisco, CA 94108"]}, "phone": "+14153981215", "display_phone": "(415) 398-1215", "distance": 4601.631977959568}, {"id": "ushio-ramen-san-francisco-3", "name": "Ushio Ramen", "image_url": "https://s3-media2.fl.yelpcdn.com/bphoto/0s55pPkHgjkWYf1TfJrRxg/o.jpg", "is_closed": false, "url": "https://www.yelp.com/biz/ushio-ramen-san-francisco-3?adjust_creative=A1HR7D-cXuiUdMXadx5pVQ&utm_campaign=yelp_api_v3&utm_medium=api_v3_business_search&utm_source=A1HR7D-cXuiUdMXadx5pVQ", "review_count": 80, "categories": [{"alias": "ramen", "title": "Ramen"}], "rating": 4.0, "coordinates": {"latitude": 37.765096, "longitude": -122.422692}, "transactions": [], "price": "$$", "location": {"address1": "3128 16th St", "address2": "", "address3": null, "city": "San Francisco", "zip_code": "94103", "country": "US", "state": "CA", "display_address": ["3128 16th St", "San Francisco, CA 94103"]}, "phone": "+14157030318", "display_phone": "(415) 703-0318", "distance": 1296.0679173696578}, {"id": "tropisue\u00f1o-san-francisco-3", "name": "Tropisue\u00f1o", "image_url": "https://s3-media2.fl.yelpcdn.com/bphoto/hUZgDmue1VRfvIXai6I0wg/o.jpg", "is_closed": false, "url": "https://www.yelp.com/biz/tropisue%C3%B1o-san-francisco-3?adjust_creative=A1HR7D-cXuiUdMXadx5pVQ&utm_campaign=yelp_api_v3&utm_medium=api_v3_business_search&utm_source=A1HR7D-cXuiUdMXadx5pVQ", "review_count": 3602, "categories": [{"alias": "mexican", "title": "Mexican"}, {"alias": "cocktailbars", "title": "Cocktail Bars"}], "rating": 4.0, "coordinates": {"latitude": 37.7853008468227, "longitude": -122.403918653727}, "transactions": ["restaurant_reservation"], "price": "$$", "location": {"address1": "75 Yerba Buena Ln", "address2": "", "address3": "", "city": "San Francisco", "zip_code": "94103", "country": "US", "state": "CA", "display_address": ["75 Yerba Buena Ln", "San Francisco, CA 94103"]}, "phone": "+14152430299", "display_phone": "(415) 243-0299", "distance": 3941.5902762407777}, {"id": "pasta-pop-up-san-francisco", "name": "Pasta Pop-Up", "image_url": "https://s3-media3.fl.yelpcdn.com/bphoto/9kC1m6SNbho-oW874vHVzA/o.jpg", "is_closed": false, "url": "https://www.yelp.com/biz/pasta-pop-up-san-francisco?adjust_creative=A1HR7D-cXuiUdMXadx5pVQ&utm_campaign=yelp_api_v3&utm_medium=api_v3_business_search&utm_source=A1HR7D-cXuiUdMXadx5pVQ", "review_count": 27, "categories": [{"alias": "italian", "title": "Italian"}, {"alias": "popuprestaurants", "title": "Pop-Up Restaurants"}], "rating": 4.5, "coordinates": {"latitude": 37.7998, "longitude": -122.40832}, "transactions": [], "price": "$$", "location": {"address1": "550 Green St", "address2": "", "address3": null, "city": "San Francisco", "zip_code": "94133", "country": "US", "state": "CA", "display_address": ["550 Green St", "San Francisco, CA 94133"]}, "phone": "+14154335800", "display_phone": "(415) 433-5800", "distance": 4981.957616277986}, {"id": "goemon-san-francisco", "name": "Goemon", "image_url": "https://s3-media2.fl.yelpcdn.com/bphoto/l3JgkXGNnuSi-xRk1XzSxg/o.jpg", "is_closed": false, "url": "https://www.yelp.com/biz/goemon-san-francisco?adjust_creative=A1HR7D-cXuiUdMXadx5pVQ&utm_campaign=yelp_api_v3&utm_medium=api_v3_business_search&utm_source=A1HR7D-cXuiUdMXadx5pVQ", "review_count": 10, "categories": [{"alias": "japanese", "title": "Japanese"}, {"alias": "sushi", "title": "Sushi Bars"}], "rating": 4.5, "coordinates": {"latitude": 37.76393, "longitude": -122.47438}, "transactions": [], "location": {"address1": "1524 Irving St", "address2": "", "address3": null, "city": "San Francisco", "zip_code": "94122", "country": "US", "state": "CA", "display_address": ["1524 Irving St", "San Francisco, CA 94122"]}, "phone": "+14157425137", "display_phone": "(415) 742-5137", "distance": 3354.8874098331403}, {"id": "native-burger-san-francisco", "name": "Native Burger", "image_url": "https://s3-media1.fl.yelpcdn.com/bphoto/rwFlmwo9dOQCz9U4WJwhew/o.jpg", "is_closed": false, "url": "https://www.yelp.com/biz/native-burger-san-francisco?adjust_creative=A1HR7D-cXuiUdMXadx5pVQ&utm_campaign=yelp_api_v3&utm_medium=api_v3_business_search&utm_source=A1HR7D-cXuiUdMXadx5pVQ", "review_count": 43, "categories": [{"alias": "burgers", "title": "Burgers"}], "rating": 4.5, "coordinates": {"latitude": 37.7815791, "longitude": -122.4561358}, "transactions": [], "price": "$$", "location": {"address1": "3420 Geary Blvd", "address2": "", "address3": null, "city": "San Francisco", "zip_code": "94118", "country": "US", "state": "CA", "display_address": ["3420 Geary Blvd", "San Francisco, CA 94118"]}, "phone": "+14156824197", "display_phone": "(415) 682-4197", "distance": 2875.0453850485255}, {"id": "barvale-san-francisco-4", "name": "barvale", "image_url": "https://s3-media1.fl.yelpcdn.com/bphoto/GzIDQVC5BWvkU94tp4cKow/o.jpg", "is_closed": false, "url": "https://www.yelp.com/biz/barvale-san-francisco-4?adjust_creative=A1HR7D-cXuiUdMXadx5pVQ&utm_campaign=yelp_api_v3&utm_medium=api_v3_business_search&utm_source=A1HR7D-cXuiUdMXadx5pVQ", "review_count": 33, "categories": [{"alias": "tapasmallplates", "title": "Tapas/Small Plates"}, {"alias": "spanish", "title": "Spanish"}, {"alias": "cocktailbars", "title": "Cocktail Bars"}], "rating": 4.5, "coordinates": {"latitude": 37.77574, "longitude": -122.43829}, "transactions": [], "price": "$$", "location": {"address1": "661 Divisadero St", "address2": "", "address3": null, "city": "San Francisco", "zip_code": "94117", "country": "US", "state": "CA", "display_address": ["661 Divisadero St", "San Francisco, CA 94117"]}, "phone": "+14156545211", "display_phone": "(415) 654-5211", "distance": 1660.0457729469658}, {"id": "odumak-san-francisco-2", "name": "Odumak", "image_url": "https://s3-media1.fl.yelpcdn.com/bphoto/dbO2ZeAwE0_qyg9HSuzC_g/o.jpg", "is_closed": false, "url": "https://www.yelp.com/biz/odumak-san-francisco-2?adjust_creative=A1HR7D-cXuiUdMXadx5pVQ&utm_campaign=yelp_api_v3&utm_medium=api_v3_business_search&utm_source=A1HR7D-cXuiUdMXadx5pVQ", "review_count": 26, "categories": [{"alias": "chicken_wings", "title": "Chicken Wings"}, {"alias": "korean", "title": "Korean"}], "rating": 4.0, "coordinates": {"latitude": 37.74287, "longitude": -122.47416}, "transactions": [], "price": "$$", "location": {"address1": "733 Taraval St", "address2": "", "address3": null, "city": "San Francisco", "zip_code": "94116", "country": "US", "state": "CA", "display_address": ["733 Taraval St", "San Francisco, CA 94116"]}, "phone": "+14155646400", "display_phone": "(415) 564-6400", "distance": 3871.5813005741857}, {"id": "marugame-udon-san-francisco-3", "name": "MARUGAME UDON", "image_url": "https://s3-media2.fl.yelpcdn.com/bphoto/ec0ItWEVlBNcKPFDbTMNyw/o.jpg", "is_closed": false, "url": "https://www.yelp.com/biz/marugame-udon-san-francisco-3?adjust_creative=A1HR7D-cXuiUdMXadx5pVQ&utm_campaign=yelp_api_v3&utm_medium=api_v3_business_search&utm_source=A1HR7D-cXuiUdMXadx5pVQ", "review_count": 166, "categories": [{"alias": "japanese", "title": "Japanese"}, {"alias": "noodles", "title": "Noodles"}], "rating": 4.0, "coordinates": {"latitude": 37.72856, "longitude": -122.47688}, "transactions": [], "price": "$$", "location": {"address1": "3251 20th Ave", "address2": "Space 184", "address3": null, "city": "San Francisco", "zip_code": "94132", "country": "US", "state": "CA", "display_address": ["3251 20th Ave", "Space 184", "San Francisco, CA 94132"]}, "phone": "+14156801280", "display_phone": "(415) 680-1280", "distance": 5120.76257747571}, {"id": "rooster-and-rice-san-francisco-8", "name": "Rooster & Rice", "image_url": "https://s3-media1.fl.yelpcdn.com/bphoto/kgwQPZriNW21_05wmkgE8A/o.jpg", "is_closed": false, "url": "https://www.yelp.com/biz/rooster-and-rice-san-francisco-8?adjust_creative=A1HR7D-cXuiUdMXadx5pVQ&utm_campaign=yelp_api_v3&utm_medium=api_v3_business_search&utm_source=A1HR7D-cXuiUdMXadx5pVQ", "review_count": 32, "categories": [{"alias": "thai", "title": "Thai"}, {"alias": "asianfusion", "title": "Asian Fusion"}], "rating": 4.0, "coordinates": {"latitude": 37.78923, "longitude": -122.40404}, "transactions": [], "price": "$", "location": {"address1": "125 Kearny St", "address2": "", "address3": null, "city": "San Francisco", "zip_code": "94108", "country": "US", "state": "CA", "display_address": ["125 Kearny St", "San Francisco, CA 94108"]}, "phone": "+14157051500", "display_phone": "(415) 705-1500", "distance": 4253.017496307338}, {"id": "anchor-oyster-bar-san-francisco", "name": "Anchor Oyster Bar", "image_url": "https://s3-media2.fl.yelpcdn.com/bphoto/-Zw6ivl7HlQ7ELe0OnPJFQ/o.jpg", "is_closed": false, "url": "https://www.yelp.com/biz/anchor-oyster-bar-san-francisco?adjust_creative=A1HR7D-cXuiUdMXadx5pVQ&utm_campaign=yelp_api_v3&utm_medium=api_v3_business_search&utm_source=A1HR7D-cXuiUdMXadx5pVQ", "review_count": 1299, "categories": [{"alias": "seafood", "title": "Seafood"}], "rating": 4.5, "coordinates": {"latitude": 37.759689, "longitude": -122.434609}, "transactions": ["restaurant_reservation"], "price": "$$$", "location": {"address1": "579 Castro St", "address2": "", "address3": "", "city": "San Francisco", "zip_code": "94114", "country": "US", "state": "CA", "display_address": ["579 Castro St", "San Francisco, CA 94114"]}, "phone": "+14154313990", "display_phone": "(415) 431-3990", "distance": 210.29727085313797}, {"id": "kaisen-don-san-francisco", "name": "Kaisen Don", "image_url": "https://s3-media3.fl.yelpcdn.com/bphoto/wqKOT6Q4drsU6fmZR8Gw_w/o.jpg", "is_closed": false, "url": "https://www.yelp.com/biz/kaisen-don-san-francisco?adjust_creative=A1HR7D-cXuiUdMXadx5pVQ&utm_campaign=yelp_api_v3&utm_medium=api_v3_business_search&utm_source=A1HR7D-cXuiUdMXadx5pVQ", "review_count": 67, "categories": [{"alias": "japanese", "title": "Japanese"}], "rating": 4.0, "coordinates": {"latitude": 37.72539, "longitude": -122.46325}, "transactions": ["delivery", "pickup"], "price": "$$", "location": {"address1": "1939 Ocean Ave", "address2": null, "address3": "", "city": "San Francisco", "zip_code": "94127", "country": "US", "state": "CA", "display_address": ["1939 Ocean Ave", "San Francisco, CA 94127"]}, "phone": "+14158599081", "display_phone": "(415) 859-9081", "distance": 4598.433990853288}, {"id": "hillstone-san-francisco-4", "name": "Hillstone", "image_url": "https://s3-media4.fl.yelpcdn.com/bphoto/3hJ6yHzKFifGe2J32oiE0A/o.jpg", "is_closed": false, "url": "https://www.yelp.com/biz/hillstone-san-francisco-4?adjust_creative=A1HR7D-cXuiUdMXadx5pVQ&utm_campaign=yelp_api_v3&utm_medium=api_v3_business_search&utm_source=A1HR7D-cXuiUdMXadx5pVQ", "review_count": 1935, "categories": [{"alias": "newamerican", "title": "American (New)"}, {"alias": "diners", "title": "Diners"}, {"alias": "wine_bars", "title": "Wine Bars"}], "rating": 4.0, "coordinates": {"latitude": 37.805712595582, "longitude": -122.405280545354}, "transactions": ["restaurant_reservation"], "price": "$$$", "location": {"address1": "1800 Montgomery St", "address2": "", "address3": "", "city": "San Francisco", "zip_code": "94111", "country": "US", "state": "CA", "display_address": ["1800 Montgomery St", "San Francisco, CA 94111"]}, "phone": "+14153929280", "display_phone": "(415) 392-9280", "distance": 5724.2796260702435}, {"id": "hops-and-hominy-san-francisco", "name": "Hops & Hominy", "image_url": "https://s3-media3.fl.yelpcdn.com/bphoto/4Z6aoVQ3fnpxdtKZyue1Ww/o.jpg", "is_closed": false, "url": "https://www.yelp.com/biz/hops-and-hominy-san-francisco?adjust_creative=A1HR7D-cXuiUdMXadx5pVQ&utm_campaign=yelp_api_v3&utm_medium=api_v3_business_search&utm_source=A1HR7D-cXuiUdMXadx5pVQ", "review_count": 1708, "categories": [{"alias": "southern", "title": "Southern"}, {"alias": "tradamerican", "title": "American (Traditional)"}, {"alias": "bars", "title": "Bars"}], "rating": 4.0, "coordinates": {"latitude": 37.789312, "longitude": -122.405731}, "transactions": ["restaurant_reservation"], "price": "$$", "location": {"address1": "1 Tillman Pl", "address2": "", "address3": "", "city": "San Francisco", "zip_code": "94108", "country": "US", "state": "CA", "display_address": ["1 Tillman Pl", "San Francisco, CA 94108"]}, "phone": "+14153736341", "display_phone": "(415) 373-6341", "distance": 4155.668728921538}, {"id": "nopa-san-francisco", "name": "Nopa", "image_url": "https://s3-media3.fl.yelpcdn.com/bphoto/M8lkaDkG8GChJ1qvXhtLNw/o.jpg", "is_closed": false, "url": "https://www.yelp.com/biz/nopa-san-francisco?adjust_creative=A1HR7D-cXuiUdMXadx5pVQ&utm_campaign=yelp_api_v3&utm_medium=api_v3_business_search&utm_source=A1HR7D-cXuiUdMXadx5pVQ", "review_count": 4635, "categories": [{"alias": "newamerican", "title": "American (New)"}, {"alias": "modern_european", "title": "Modern European"}], "rating": 4.0, "coordinates": {"latitude": 37.774905, "longitude": -122.437506}, "transactions": ["restaurant_reservation"], "price": "$$$", "location": {"address1": "560 Divisadero St", "address2": null, "address3": "", "city": "San Francisco", "zip_code": "94117", "country": "US", "state": "CA", "display_address": ["560 Divisadero St", "San Francisco, CA 94117"]}, "phone": "+14158648643", "display_phone": "(415) 864-8643", "distance": 1560.129772552842}, {"id": "heritage-restaurant-and-bar-san-francisco", "name": "Heritage Restaurant & Bar", "image_url": "https://s3-media3.fl.yelpcdn.com/bphoto/JlO6x04-ud1MMw8kSbw2Zg/o.jpg", "is_closed": false, "url": "https://www.yelp.com/biz/heritage-restaurant-and-bar-san-francisco?adjust_creative=A1HR7D-cXuiUdMXadx5pVQ&utm_campaign=yelp_api_v3&utm_medium=api_v3_business_search&utm_source=A1HR7D-cXuiUdMXadx5pVQ", "review_count": 31, "categories": [{"alias": "bars", "title": "Bars"}, {"alias": "newamerican", "title": "American (New)"}], "rating": 4.0, "coordinates": {"latitude": 37.78305, "longitude": -122.46684}, "transactions": ["restaurant_reservation"], "price": "$$", "location": {"address1": "708 Clement St", "address2": "", "address3": null, "city": "San Francisco", "zip_code": "94118", "country": "US", "state": "CA", "display_address": ["708 Clement St", "San Francisco, CA 94118"]}, "phone": "+14153862200", "display_phone": "(415) 386-2200", "distance": 3635.3104643422116}, {"id": "botell\u00f3n-san-francisco", "name": "Botell\u00f3n", "image_url": "https://s3-media2.fl.yelpcdn.com/bphoto/F_oMrU0X_0jgsoSCg5DEcQ/o.jpg", "is_closed": false, "url": "https://www.yelp.com/biz/botell%C3%B3n-san-francisco?adjust_creative=A1HR7D-cXuiUdMXadx5pVQ&utm_campaign=yelp_api_v3&utm_medium=api_v3_business_search&utm_source=A1HR7D-cXuiUdMXadx5pVQ", "review_count": 23, "categories": [{"alias": "bars", "title": "Bars"}, {"alias": "newamerican", "title": "American (New)"}, {"alias": "pizza", "title": "Pizza"}], "rating": 4.5, "coordinates": {"latitude": 37.76574, "longitude": -122.43148}, "transactions": [], "price": "$$$", "location": {"address1": "2200 Market St", "address2": null, "address3": "", "city": "San Francisco", "zip_code": "94114", "country": "US", "state": "CA", "display_address": ["2200 Market St", "San Francisco, CA 94114"]}, "phone": "+14158007559", "display_phone": "(415) 800-7559", "distance": 695.816573368056}, {"id": "house-of-prime-rib-san-francisco", "name": "House of Prime Rib", "image_url": "https://s3-media4.fl.yelpcdn.com/bphoto/HLrjaMoAgYSac0vx71YpCA/o.jpg", "is_closed": false, "url": "https://www.yelp.com/biz/house-of-prime-rib-san-francisco?adjust_creative=A1HR7D-cXuiUdMXadx5pVQ&utm_campaign=yelp_api_v3&utm_medium=api_v3_business_search&utm_source=A1HR7D-cXuiUdMXadx5pVQ", "review_count": 6113, "categories": [{"alias": "tradamerican", "title": "American (Traditional)"}, {"alias": "steak", "title": "Steakhouses"}, {"alias": "wine_bars", "title": "Wine Bars"}], "rating": 4.0, "coordinates": {"latitude": 37.79338, "longitude": -122.4225}, "transactions": ["restaurant_reservation"], "price": "$$$", "location": {"address1": "1906 Van Ness Ave", "address2": "", "address3": "", "city": "San Francisco", "zip_code": "94109", "country": "US", "state": "CA", "display_address": ["1906 Van Ness Ave", "San Francisco, CA 94109"]}, "phone": "+14158854605", "display_phone": "(415) 885-4605", "distance": 3820.440725641126}, {"id": "foreign-cinema-san-francisco", "name": "Foreign Cinema", "image_url": "https://s3-media4.fl.yelpcdn.com/bphoto/Ynyfg9pp8v8UaTtFFOh98A/o.jpg", "is_closed": false, "url": "https://www.yelp.com/biz/foreign-cinema-san-francisco?adjust_creative=A1HR7D-cXuiUdMXadx5pVQ&utm_campaign=yelp_api_v3&utm_medium=api_v3_business_search&utm_source=A1HR7D-cXuiUdMXadx5pVQ", "review_count": 4323, "categories": [{"alias": "breakfast_brunch", "title": "Breakfast & Brunch"}, {"alias": "mediterranean", "title": "Mediterranean"}, {"alias": "cocktailbars", "title": "Cocktail Bars"}], "rating": 4.0, "coordinates": {"latitude": 37.75637, "longitude": -122.41925}, "transactions": ["restaurant_reservation"], "price": "$$$", "location": {"address1": "2534 Mission St", "address2": "", "address3": "", "city": "San Francisco", "zip_code": "94110", "country": "US", "state": "CA", "display_address": ["2534 Mission St", "San Francisco, CA 94110"]}, "phone": "+14156487600", "display_phone": "(415) 648-7600", "distance": 1597.757221619982}, {"id": "bunn-mike-san-francisco", "name": "Bunn Mike", "image_url": "https://s3-media1.fl.yelpcdn.com/bphoto/bAT5OQYPCIjGNOJnj20l-w/o.jpg", "is_closed": false, "url": "https://www.yelp.com/biz/bunn-mike-san-francisco?adjust_creative=A1HR7D-cXuiUdMXadx5pVQ&utm_campaign=yelp_api_v3&utm_medium=api_v3_business_search&utm_source=A1HR7D-cXuiUdMXadx5pVQ", "review_count": 14, "categories": [{"alias": "vietnamese", "title": "Vietnamese"}, {"alias": "donuts", "title": "Donuts"}, {"alias": "sandwiches", "title": "Sandwiches"}], "rating": 4.5, "coordinates": {"latitude": 37.76628, "longitude": -122.42991}, "transactions": ["delivery", "pickup"], "price": "$", "location": {"address1": "2175 Market St", "address2": "", "address3": null, "city": "San Francisco", "zip_code": "94114", "country": "US", "state": "CA", "display_address": ["2175 Market St", "San Francisco, CA 94114"]}, "phone": "+14156838357", "display_phone": "(415) 683-8357", "distance": 829.562240820532}, {"id": "jijime-san-francisco-8", "name": "JIJIME", "image_url": "https://s3-media3.fl.yelpcdn.com/bphoto/ObT-3bzglZzM7-8WtYw0UQ/o.jpg", "is_closed": false, "url": "https://www.yelp.com/biz/jijime-san-francisco-8?adjust_creative=A1HR7D-cXuiUdMXadx5pVQ&utm_campaign=yelp_api_v3&utm_medium=api_v3_business_search&utm_source=A1HR7D-cXuiUdMXadx5pVQ", "review_count": 29, "categories": [{"alias": "korean", "title": "Korean"}, {"alias": "asianfusion", "title": "Asian Fusion"}, {"alias": "tapasmallplates", "title": "Tapas/Small Plates"}], "rating": 4.5, "coordinates": {"latitude": 37.7806549278456, "longitude": -122.478949574806}, "transactions": [], "price": "$$", "location": {"address1": "5524 Geary Blvd", "address2": "", "address3": null, "city": "San Francisco", "zip_code": "94121", "country": "US", "state": "CA", "display_address": ["5524 Geary Blvd", "San Francisco, CA 94121"]}, "phone": "+14152215353", "display_phone": "(415) 221-5353", "distance": 4333.781775201478}, {"id": "pier-market-seafood-restaurant-san-francisco", "name": "Pier Market Seafood Restaurant", "image_url": "https://s3-media1.fl.yelpcdn.com/bphoto/3TiGk_mslAm-G5W1wrUYAQ/o.jpg", "is_closed": false, "url": "https://www.yelp.com/biz/pier-market-seafood-restaurant-san-francisco?adjust_creative=A1HR7D-cXuiUdMXadx5pVQ&utm_campaign=yelp_api_v3&utm_medium=api_v3_business_search&utm_source=A1HR7D-cXuiUdMXadx5pVQ", "review_count": 1163, "categories": [{"alias": "seafood", "title": "Seafood"}, {"alias": "bars", "title": "Bars"}, {"alias": "sandwiches", "title": "Sandwiches"}], "rating": 3.5, "coordinates": {"latitude": 37.8099386456994, "longitude": -122.410550415516}, "transactions": ["restaurant_reservation"], "price": "$$", "location": {"address1": "Pier 39", "address2": "Ste 103", "address3": "", "city": "San Francisco", "zip_code": "94133", "country": "US", "state": "CA", "display_address": ["Pier 39", "Ste 103", "San Francisco, CA 94133"]}, "phone": "+14159897437", "display_phone": "(415) 989-7437", "distance": 5908.750880020029}, {"id": "alma-cocina-san-francisco", "name": "Alma Cocina", "image_url": "https://s3-media3.fl.yelpcdn.com/bphoto/eGo0q8VBJQK8ozqfg_o8vw/o.jpg", "is_closed": false, "url": "https://www.yelp.com/biz/alma-cocina-san-francisco?adjust_creative=A1HR7D-cXuiUdMXadx5pVQ&utm_campaign=yelp_api_v3&utm_medium=api_v3_business_search&utm_source=A1HR7D-cXuiUdMXadx5pVQ", "review_count": 79, "categories": [{"alias": "latin", "title": "Latin American"}, {"alias": "peruvian", "title": "Peruvian"}, {"alias": "wine_bars", "title": "Wine Bars"}], "rating": 4.5, "coordinates": {"latitude": 37.7523758, "longitude": -122.4138638}, "transactions": ["pickup", "restaurant_reservation"], "price": "$$", "location": {"address1": "2801 Folsom St", "address2": "", "address3": null, "city": "San Francisco", "zip_code": "94110", "country": "US", "state": "CA", "display_address": ["2801 Folsom St", "San Francisco, CA 94110"]}, "phone": "+14153410389", "display_phone": "(415) 341-0389", "distance": 2199.9882913601678}, {"id": "shizen-vegan-sushi-bar-and-izakaya-san-francisco", "name": "Shizen Vegan Sushi Bar & Izakaya", "image_url": "https://s3-media3.fl.yelpcdn.com/bphoto/ose-rlo_a7c6pybjIxjHbA/o.jpg", "is_closed": false, "url": "https://www.yelp.com/biz/shizen-vegan-sushi-bar-and-izakaya-san-francisco?adjust_creative=A1HR7D-cXuiUdMXadx5pVQ&utm_campaign=yelp_api_v3&utm_medium=api_v3_business_search&utm_source=A1HR7D-cXuiUdMXadx5pVQ", "review_count": 947, "categories": [{"alias": "sushi", "title": "Sushi Bars"}, {"alias": "vegan", "title": "Vegan"}, {"alias": "izakaya", "title": "Izakaya"}], "rating": 4.5, "coordinates": {"latitude": 37.768314, "longitude": -122.421642}, "transactions": ["restaurant_reservation"], "price": "$$", "location": {"address1": "370 14th St", "address2": "", "address3": "", "city": "San Francisco", "zip_code": "94103", "country": "US", "state": "CA", "display_address": ["370 14th St", "San Francisco, CA 94103"]}, "phone": "+14156785767", "display_phone": "(415) 678-5767", "distance": 1540.596515967688}, {"id": "garaje-san-francisco", "name": "Garaje", "image_url": "https://s3-media2.fl.yelpcdn.com/bphoto/_nN_DhLXkfwEkwPNxne9hw/o.jpg", "is_closed": false, "url": "https://www.yelp.com/biz/garaje-san-francisco?adjust_creative=A1HR7D-cXuiUdMXadx5pVQ&utm_campaign=yelp_api_v3&utm_medium=api_v3_business_search&utm_source=A1HR7D-cXuiUdMXadx5pVQ", "review_count": 1289, "categories": [{"alias": "mexican", "title": "Mexican"}, {"alias": "burgers", "title": "Burgers"}, {"alias": "gastropubs", "title": "Gastropubs"}], "rating": 4.5, "coordinates": {"latitude": 37.781752952057, "longitude": -122.396121970462}, "transactions": [], "price": "$$", "location": {"address1": "475 3rd St", "address2": "", "address3": "", "city": "San Francisco", "zip_code": "94107", "country": "US", "state": "CA", "display_address": ["475 3rd St", "San Francisco, CA 94107"]}, "phone": "+14156440838", "display_phone": "(415) 644-0838", "distance": 4235.513079942624}, {"id": "vitalist-superfood-san-francisco", "name": "Vitalist Superfood", "image_url": "https://s3-media1.fl.yelpcdn.com/bphoto/1V9cu1x-lZUGdhbFl1-WFA/o.jpg", "is_closed": false, "url": "https://www.yelp.com/biz/vitalist-superfood-san-francisco?adjust_creative=A1HR7D-cXuiUdMXadx5pVQ&utm_campaign=yelp_api_v3&utm_medium=api_v3_business_search&utm_source=A1HR7D-cXuiUdMXadx5pVQ", "review_count": 7, "categories": [{"alias": "juicebars", "title": "Juice Bars & Smoothies"}, {"alias": "cafes", "title": "Cafes"}], "rating": 5.0, "coordinates": {"latitude": 37.78509, "longitude": -122.42067}, "transactions": ["delivery", "pickup"], "price": "$$", "location": {"address1": "1000 Van Ness Ave", "address2": "Fl 3", "address3": "", "city": "San Francisco", "zip_code": "94109", "country": "US", "state": "CA", "display_address": ["1000 Van Ness Ave", "Fl 3", "San Francisco, CA 94109"]}, "phone": "+14153738599", "display_phone": "(415) 373-8599", "distance": 3039.610867517754}, {"id": "newkirks-san-francisco-3", "name": "Newkirk's", "image_url": "https://s3-media2.fl.yelpcdn.com/bphoto/gBt9pcsuiDkMvHEXG8K0Hw/o.jpg", "is_closed": false, "url": "https://www.yelp.com/biz/newkirks-san-francisco-3?adjust_creative=A1HR7D-cXuiUdMXadx5pVQ&utm_campaign=yelp_api_v3&utm_medium=api_v3_business_search&utm_source=A1HR7D-cXuiUdMXadx5pVQ", "review_count": 13, "categories": [{"alias": "sandwiches", "title": "Sandwiches"}], "rating": 4.5, "coordinates": {"latitude": 37.756, "longitude": -122.406912}, "transactions": [], "price": "$$", "location": {"address1": "1002 Potrero Ave", "address2": "", "address3": null, "city": "San Francisco", "zip_code": "94110", "country": "US", "state": "CA", "display_address": ["1002 Potrero Ave", "San Francisco, CA 94110"]}, "phone": "+14159627695", "display_phone": "(415) 962-7695", "distance": 2652.988107408804}, {"id": "the-new-spot-on-polk-san-francisco-2", "name": "The New Spot On Polk", "image_url": "https://s3-media2.fl.yelpcdn.com/bphoto/S_sDvpomoH5bmi8_wfHQWQ/o.jpg", "is_closed": false, "url": "https://www.yelp.com/biz/the-new-spot-on-polk-san-francisco-2?adjust_creative=A1HR7D-cXuiUdMXadx5pVQ&utm_campaign=yelp_api_v3&utm_medium=api_v3_business_search&utm_source=A1HR7D-cXuiUdMXadx5pVQ", "review_count": 140, "categories": [{"alias": "breakfast_brunch", "title": "Breakfast & Brunch"}, {"alias": "diners", "title": "Diners"}, {"alias": "burgers", "title": "Burgers"}], "rating": 4.5, "coordinates": {"latitude": 37.798839, "longitude": -122.422409}, "transactions": ["pickup", "delivery"], "price": "$$", "location": {"address1": "2401 Polk St", "address2": "", "address3": null, "city": "San Francisco", "zip_code": "94109", "country": "US", "state": "CA", "display_address": ["2401 Polk St", "San Francisco, CA 94109"]}, "phone": "+14159137775", "display_phone": "(415) 913-7775", "distance": 4395.389224711407}, {"id": "hog-island-oyster-co-san-francisco", "name": "Hog Island Oyster Co", "image_url": "https://s3-media2.fl.yelpcdn.com/bphoto/lm8OpdFI1UrHrI0bN074iA/o.jpg", "is_closed": false, "url": "https://www.yelp.com/biz/hog-island-oyster-co-san-francisco?adjust_creative=A1HR7D-cXuiUdMXadx5pVQ&utm_campaign=yelp_api_v3&utm_medium=api_v3_business_search&utm_source=A1HR7D-cXuiUdMXadx5pVQ", "review_count": 4767, "categories": [{"alias": "seafood", "title": "Seafood"}, {"alias": "seafoodmarkets", "title": "Seafood Markets"}, {"alias": "raw_food", "title": "Live/Raw Food"}], "rating": 4.5, "coordinates": {"latitude": 37.795831, "longitude": -122.393303}, "transactions": ["restaurant_reservation"], "price": "$$", "location": {"address1": "1 Ferry Bldg", "address2": "", "address3": "Shop 11", "city": "San Francisco", "zip_code": "94111", "country": "US", "state": "CA", "display_address": ["1 Ferry Bldg", "Shop 11", "San Francisco, CA 94111"]}, "phone": "+14153917117", "display_phone": "(415) 391-7117", "distance": 5428.156706690052}, {"id": "thorough-bread-and-pastry-san-francisco", "name": "Thorough Bread & Pastry", "image_url": "https://s3-media2.fl.yelpcdn.com/bphoto/OR0P55RZDTXTZsMID9L7HQ/o.jpg", "is_closed": false, "url": "https://www.yelp.com/biz/thorough-bread-and-pastry-san-francisco?adjust_creative=A1HR7D-cXuiUdMXadx5pVQ&utm_campaign=yelp_api_v3&utm_medium=api_v3_business_search&utm_source=A1HR7D-cXuiUdMXadx5pVQ", "review_count": 752, "categories": [{"alias": "cakeshop", "title": "Patisserie/Cake Shop"}, {"alias": "cafes", "title": "Cafes"}], "rating": 4.5, "coordinates": {"latitude": 37.7665123809431, "longitude": -122.429034858942}, "transactions": [], "price": "$", "location": {"address1": "248 Church St", "address2": "", "address3": "", "city": "San Francisco", "zip_code": "94114", "country": "US", "state": "CA", "display_address": ["248 Church St", "San Francisco, CA 94114"]}, "phone": "+14155580690", "display_phone": "(415) 558-0690", "distance": 902.2696815164079}, {"id": "espetus-brazilian-steak-house-san-francisco", "name": "Espetus Brazilian Steak House", "image_url": "https://s3-media2.fl.yelpcdn.com/bphoto/uJp9WwGiV3nwwqedhPriBg/o.jpg", "is_closed": false, "url": "https://www.yelp.com/biz/espetus-brazilian-steak-house-san-francisco?adjust_creative=A1HR7D-cXuiUdMXadx5pVQ&utm_campaign=yelp_api_v3&utm_medium=api_v3_business_search&utm_source=A1HR7D-cXuiUdMXadx5pVQ", "review_count": 3016, "categories": [{"alias": "steak", "title": "Steakhouses"}, {"alias": "latin", "title": "Latin American"}, {"alias": "brazilian", "title": "Brazilian"}], "rating": 4.0, "coordinates": {"latitude": 37.7733327504928, "longitude": -122.422131667494}, "transactions": ["restaurant_reservation"], "price": "$$$", "location": {"address1": "1686 Market St", "address2": "", "address3": "", "city": "San Francisco", "zip_code": "94102", "country": "US", "state": "CA", "display_address": ["1686 Market St", "San Francisco, CA 94102"]}, "phone": "+14155528792", "display_phone": "(415) 552-8792", "distance": 1869.4328635384957}, {"id": "okane-san-francisco", "name": "Okane", "image_url": "https://s3-media4.fl.yelpcdn.com/bphoto/64k2wsybHlG0A7_mVhuHiQ/o.jpg", "is_closed": false, "url": "https://www.yelp.com/biz/okane-san-francisco?adjust_creative=A1HR7D-cXuiUdMXadx5pVQ&utm_campaign=yelp_api_v3&utm_medium=api_v3_business_search&utm_source=A1HR7D-cXuiUdMXadx5pVQ", "review_count": 206, "categories": [{"alias": "japanese", "title": "Japanese"}, {"alias": "sushi", "title": "Sushi Bars"}, {"alias": "noodles", "title": "Noodles"}], "rating": 4.0, "coordinates": {"latitude": 37.77039, "longitude": -122.40269}, "transactions": [], "price": "$$", "location": {"address1": "669 Townsend St", "address2": null, "address3": "", "city": "San Francisco", "zip_code": "94103", "country": "US", "state": "CA", "display_address": ["669 Townsend St", "San Francisco, CA 94103"]}, "phone": "+14158659788", "display_phone": "(415) 865-9788", "distance": 3138.32273204323}, {"id": "the-front-porch-san-francisco", "name": "The Front Porch", "image_url": "https://s3-media4.fl.yelpcdn.com/bphoto/WzTsLLarSYv5LgT4k73__g/o.jpg", "is_closed": false, "url": "https://www.yelp.com/biz/the-front-porch-san-francisco?adjust_creative=A1HR7D-cXuiUdMXadx5pVQ&utm_campaign=yelp_api_v3&utm_medium=api_v3_business_search&utm_source=A1HR7D-cXuiUdMXadx5pVQ", "review_count": 2403, "categories": [{"alias": "southern", "title": "Southern"}, {"alias": "cajun", "title": "Cajun/Creole"}], "rating": 4.0, "coordinates": {"latitude": 37.74372, "longitude": -122.42197}, "transactions": ["restaurant_reservation"], "price": "$$", "location": {"address1": "65A 29th St", "address2": "", "address3": "", "city": "San Francisco", "zip_code": "94110", "country": "US", "state": "CA", "display_address": ["65A 29th St", "San Francisco, CA 94110"]}, "phone": "+14156957800", "display_phone": "(415) 695-7800", "distance": 2285.0765446444398}, {"id": "suppenk\u00fcche-san-francisco-2", "name": "Suppenk\u00fcche", "image_url": "https://s3-media3.fl.yelpcdn.com/bphoto/S36WwezowtrIxoICvJktmg/o.jpg", "is_closed": false, "url": "https://www.yelp.com/biz/suppenk%C3%BCche-san-francisco-2?adjust_creative=A1HR7D-cXuiUdMXadx5pVQ&utm_campaign=yelp_api_v3&utm_medium=api_v3_business_search&utm_source=A1HR7D-cXuiUdMXadx5pVQ", "review_count": 2929, "categories": [{"alias": "german", "title": "German"}], "rating": 4.0, "coordinates": {"latitude": 37.7762603759766, "longitude": -122.426391601562}, "transactions": [], "price": "$$", "location": {"address1": "525 Laguna St", "address2": "", "address3": "", "city": "San Francisco", "zip_code": "94102", "country": "US", "state": "CA", "display_address": ["525 Laguna St", "San Francisco, CA 94102"]}, "phone": "+14152529289", "display_phone": "(415) 252-9289", "distance": 1924.215507340238}, {"id": "swan-oyster-depot-san-francisco", "name": "Swan Oyster Depot", "image_url": "https://s3-media4.fl.yelpcdn.com/bphoto/9KiEhRXlEhaVfW8pZDOinA/o.jpg", "is_closed": false, "url": "https://www.yelp.com/biz/swan-oyster-depot-san-francisco?adjust_creative=A1HR7D-cXuiUdMXadx5pVQ&utm_campaign=yelp_api_v3&utm_medium=api_v3_business_search&utm_source=A1HR7D-cXuiUdMXadx5pVQ", "review_count": 2355, "categories": [{"alias": "seafood", "title": "Seafood"}], "rating": 4.0, "coordinates": {"latitude": 37.790939, "longitude": -122.420796}, "transactions": ["restaurant_reservation"], "price": "$$", "location": {"address1": "1517 Polk St", "address2": "", "address3": "", "city": "San Francisco", "zip_code": "94109", "country": "US", "state": "CA", "display_address": ["1517 Polk St", "San Francisco, CA 94109"]}, "phone": "+14156731101", "display_phone": "(415) 673-1101", "distance": 3612.4047165349634}, {"id": "la-taqueria-san-francisco-2", "name": "La Taqueria", "image_url": "https://s3-media1.fl.yelpcdn.com/bphoto/Vg14X7hOLoMyVlk3iAQ4ng/o.jpg", "is_closed": false, "url": "https://www.yelp.com/biz/la-taqueria-san-francisco-2?adjust_creative=A1HR7D-cXuiUdMXadx5pVQ&utm_campaign=yelp_api_v3&utm_medium=api_v3_business_search&utm_source=A1HR7D-cXuiUdMXadx5pVQ", "review_count": 3293, "categories": [{"alias": "mexican", "title": "Mexican"}], "rating": 4.0, "coordinates": {"latitude": 37.750883, "longitude": -122.418123}, "transactions": ["restaurant_reservation"], "price": "$", "location": {"address1": "2889 Mission St", "address2": "", "address3": "", "city": "San Francisco", "zip_code": "94110", "country": "US", "state": "CA", "display_address": ["2889 Mission St", "San Francisco, CA 94110"]}, "phone": "+14152857117", "display_phone": "(415) 285-7117", "distance": 1958.4726910634379}, {"id": "the-ice-cream-bar-san-francisco", "name": "The Ice Cream Bar", "image_url": "https://s3-media2.fl.yelpcdn.com/bphoto/TOsyB4ZSzH973oaCDI8Eig/o.jpg", "is_closed": false, "url": "https://www.yelp.com/biz/the-ice-cream-bar-san-francisco?adjust_creative=A1HR7D-cXuiUdMXadx5pVQ&utm_campaign=yelp_api_v3&utm_medium=api_v3_business_search&utm_source=A1HR7D-cXuiUdMXadx5pVQ", "review_count": 1202, "categories": [{"alias": "icecream", "title": "Ice Cream & Frozen Yogurt"}, {"alias": "beer_and_wine", "title": "Beer, Wine & Spirits"}, {"alias": "tradamerican", "title": "American (Traditional)"}], "rating": 4.0, "coordinates": {"latitude": 37.76643, "longitude": -122.45033}, "transactions": ["pickup"], "price": "$$", "location": {"address1": "815 Cole St", "address2": "", "address3": "", "city": "San Francisco", "zip_code": "94117", "country": "US", "state": "CA", "display_address": ["815 Cole St", "San Francisco, CA 94117"]}, "phone": "+14157424932", "display_phone": "(415) 742-4932", "distance": 1366.9597119429138}, {"id": "san-tung-san-francisco-2", "name": "San Tung", "image_url": "https://s3-media4.fl.yelpcdn.com/bphoto/P5_EgBQbRm9Am9Mmynvwxw/o.jpg", "is_closed": false, "url": "https://www.yelp.com/biz/san-tung-san-francisco-2?adjust_creative=A1HR7D-cXuiUdMXadx5pVQ&utm_campaign=yelp_api_v3&utm_medium=api_v3_business_search&utm_source=A1HR7D-cXuiUdMXadx5pVQ", "review_count": 5864, "categories": [{"alias": "chinese", "title": "Chinese"}, {"alias": "chicken_wings", "title": "Chicken Wings"}, {"alias": "noodles", "title": "Noodles"}], "rating": 4.0, "coordinates": {"latitude": 37.76367, "longitude": -122.46896}, "transactions": ["restaurant_reservation"], "price": "$$", "location": {"address1": "1031 Irving St", "address2": "", "address3": "", "city": "San Francisco", "zip_code": "94122", "country": "US", "state": "CA", "display_address": ["1031 Irving St", "San Francisco, CA 94122"]}, "phone": "+14152420828", "display_phone": "(415) 242-0828", "distance": 2878.523074964004}, {"id": "kokkari-estiatorio-san-francisco", "name": "Kokkari Estiatorio", "image_url": "https://s3-media2.fl.yelpcdn.com/bphoto/hL5JQzUDA06eqvmUtdUqZA/o.jpg", "is_closed": false, "url": "https://www.yelp.com/biz/kokkari-estiatorio-san-francisco?adjust_creative=A1HR7D-cXuiUdMXadx5pVQ&utm_campaign=yelp_api_v3&utm_medium=api_v3_business_search&utm_source=A1HR7D-cXuiUdMXadx5pVQ", "review_count": 3971, "categories": [{"alias": "greek", "title": "Greek"}, {"alias": "mediterranean", "title": "Mediterranean"}], "rating": 4.5, "coordinates": {"latitude": 37.7969612181187, "longitude": -122.399660646915}, "transactions": ["restaurant_reservation"], "price": "$$$", "location": {"address1": "200 Jackson St", "address2": "", "address3": "", "city": "San Francisco", "zip_code": "94111", "country": "US", "state": "CA", "display_address": ["200 Jackson St", "San Francisco, CA 94111"]}, "phone": "+14159810983", "display_phone": "(415) 981-0983", "distance": 5152.1737393255735}, {"id": "beretta-san-francisco", "name": "Beretta", "image_url": "https://s3-media4.fl.yelpcdn.com/bphoto/Au1vrkX9VqUtKfzI3QMkdA/o.jpg", "is_closed": false, "url": "https://www.yelp.com/biz/beretta-san-francisco?adjust_creative=A1HR7D-cXuiUdMXadx5pVQ&utm_campaign=yelp_api_v3&utm_medium=api_v3_business_search&utm_source=A1HR7D-cXuiUdMXadx5pVQ", "review_count": 3196, "categories": [{"alias": "italian", "title": "Italian"}, {"alias": "bars", "title": "Bars"}, {"alias": "pizza", "title": "Pizza"}], "rating": 4.0, "coordinates": {"latitude": 37.753868, "longitude": -122.420636}, "transactions": ["restaurant_reservation"], "price": "$$", "location": {"address1": "1199 Valencia St", "address2": "", "address3": "", "city": "San Francisco", "zip_code": "94110", "country": "US", "state": "CA", "display_address": ["1199 Valencia St", "San Francisco, CA 94110"]}, "phone": "+14156951199", "display_phone": "(415) 695-1199", "distance": 1594.7905546079419}, {"id": "super-pan-san-francisco-2", "name": "Super Pan", "image_url": "https://s3-media2.fl.yelpcdn.com/bphoto/jz5H62waT4mcED5CLw3aXA/o.jpg", "is_closed": false, "url": "https://www.yelp.com/biz/super-pan-san-francisco-2?adjust_creative=A1HR7D-cXuiUdMXadx5pVQ&utm_campaign=yelp_api_v3&utm_medium=api_v3_business_search&utm_source=A1HR7D-cXuiUdMXadx5pVQ", "review_count": 249, "categories": [{"alias": "teppanyaki", "title": "Teppanyaki"}, {"alias": "ramen", "title": "Ramen"}, {"alias": "asianfusion", "title": "Asian Fusion"}], "rating": 4.0, "coordinates": {"latitude": 37.780695, "longitude": -122.4768301}, "transactions": ["pickup", "delivery"], "price": "$$", "location": {"address1": "5344 Geary Blvd", "address2": null, "address3": "", "city": "San Francisco", "zip_code": "94121", "country": "US", "state": "CA", "display_address": ["5344 Geary Blvd", "San Francisco, CA 94121"]}, "phone": "+14156685344", "display_phone": "(415) 668-5344", "distance": 4176.608158079874}, {"id": "iza-ramen-soma-san-francisco-2", "name": "Iza Ramen SOMA", "image_url": "https://s3-media2.fl.yelpcdn.com/bphoto/cXc-iBLasYmSUv2-tPfhdg/o.jpg", "is_closed": false, "url": "https://www.yelp.com/biz/iza-ramen-soma-san-francisco-2?adjust_creative=A1HR7D-cXuiUdMXadx5pVQ&utm_campaign=yelp_api_v3&utm_medium=api_v3_business_search&utm_source=A1HR7D-cXuiUdMXadx5pVQ", "review_count": 191, "categories": [{"alias": "ramen", "title": "Ramen"}, {"alias": "izakaya", "title": "Izakaya"}], "rating": 4.0, "coordinates": {"latitude": 37.77563, "longitude": -122.40882}, "transactions": [], "price": "$$", "location": {"address1": "1155 Folsom St", "address2": "", "address3": null, "city": "San Francisco", "zip_code": "94103", "country": "US", "state": "CA", "display_address": ["1155 Folsom St", "San Francisco, CA 94103"]}, "phone": "+16284443070", "display_phone": "(628) 444-3070", "distance": 2929.093301088536}, {"id": "ozaoza-san-francisco", "name": "OzaOza", "image_url": "https://s3-media3.fl.yelpcdn.com/bphoto/mIe3lNzg_QMKBKKpJ5yD9g/o.jpg", "is_closed": false, "url": "https://www.yelp.com/biz/ozaoza-san-francisco?adjust_creative=A1HR7D-cXuiUdMXadx5pVQ&utm_campaign=yelp_api_v3&utm_medium=api_v3_business_search&utm_source=A1HR7D-cXuiUdMXadx5pVQ", "review_count": 61, "categories": [{"alias": "japanese", "title": "Japanese"}], "rating": 4.5, "coordinates": {"latitude": 37.785801, "longitude": -122.43015}, "transactions": ["restaurant_reservation"], "price": "$$$$", "location": {"address1": "1700 Post St", "address2": "Ste K,Fl 2", "address3": null, "city": "San Francisco", "zip_code": "94115", "country": "US", "state": "CA", "display_address": ["1700 Post St", "Ste K,Fl 2", "San Francisco, CA 94115"]}, "phone": "+14156744400", "display_phone": "(415) 674-4400", "distance": 2823.7040491347498}], "total": 4900, "region": {"center": {"longitude": -122.4364471436, "latitude": 37.7608993898}}}