{"businesses": [{"id": "teeth-sf-san-francisco", "name": "Teeth SF", "image_url": "https://s3-media3.fl.yelpcdn.com/bphoto/RjLltbEj2bGT0PiX1Q9AzA/o.jpg", "is_closed": false, "url": "https://www.yelp.com/biz/teeth-sf-san-francisco?adjust_creative=A1HR7D-cXuiUdMXadx5pVQ&utm_campaign=yelp_api_v3&utm_medium=api_v3_business_search&utm_source=A1HR7D-cXuiUdMXadx5pVQ", "review_count": 914, "categories": [{"alias": "bars", "title": "Bars"}, {"alias": "newamerican", "title": "American (New)"}], "rating": 4.0, "coordinates": {"latitude": 37.759859, "longitude": -122.419008}, "transactions": ["pickup"], "price": "$$", "location": {"address1": "2323 Mission St", "address2": "", "address3": "", "city": "San Francisco", "zip_code": "94110", "country": "US", "state": "CA", "display_address": ["2323 Mission St", "San Francisco, CA 94110"]}, "phone": "+14152852380", "display_phone": "(415) 285-2380", "distance": 1537.4031092039818}, {"id": "sauce-belden-san-francisco-2", "name": "Sauce - Belden", "image_url": "https://s3-media4.fl.yelpcdn.com/bphoto/6neV_CV1KTTzAYUzaZLTJA/o.jpg", "is_closed": false, "url": "https://www.yelp.com/biz/sauce-belden-san-francisco-2?adjust_creative=A1HR7D-cXuiUdMXadx5pVQ&utm_campaign=yelp_api_v3&utm_medium=api_v3_business_search&utm_source=A1HR7D-cXuiUdMXadx5pVQ", "review_count": 576, "categories": [{"alias": "bars", "title": "Bars"}, {"alias": "tradamerican", "title": "American (Traditional)"}], "rating": 4.0, "coordinates": {"latitude": 37.7914699, "longitude": -122.40366}, "transactions": [], "price": "$$", "location": {"address1": "56 Belden Pl", "address2": "", "address3": "", "city": "San Francisco", "zip_code": "94104", "country": "US", "state": "CA", "display_address": ["56 Belden Pl", "San Francisco, CA 94104"]}, "phone": "+14153978800", "display_phone": "(415) 397-8800", "distance": 4456.292012471354}, {"id": "the-castro-republic-san-francisco", "name": "The Castro Republic", "image_url": "https://s3-media3.fl.yelpcdn.com/bphoto/EpUhOh_L3cOsn4Y0IodZzg/o.jpg", "is_closed": false, "url": "https://www.yelp.com/biz/the-castro-republic-san-francisco?adjust_creative=A1HR7D-cXuiUdMXadx5pVQ&utm_campaign=yelp_api_v3&utm_medium=api_v3_business_search&utm_source=A1HR7D-cXuiUdMXadx5pVQ", "review_count": 223, "categories": [{"alias": "latin", "title": "Latin American"}, {"alias": "mexican", "title": "Mexican"}], "rating": 4.5, "coordinates": {"latitude": 37.764333486557, "longitude": -122.432760447264}, "transactions": [], "price": "$$", "location": {"address1": "2295 Market St", "address2": "", "address3": "", "city": "San Francisco", "zip_code": "94114", "country": "US", "state": "CA", "display_address": ["2295 Market St", "San Francisco, CA 94114"]}, "phone": "+14159340525", "display_phone": "(415) 934-0525", "distance": 530.79324944036}, {"id": "tuba-express-san-francisco", "name": "Tuba Express", "image_url": "https://s3-media2.fl.yelpcdn.com/bphoto/l6wxQ54YurBnUJRdoxPPDQ/o.jpg", "is_closed": false, "url": "https://www.yelp.com/biz/tuba-express-san-francisco?adjust_creative=A1HR7D-cXuiUdMXadx5pVQ&utm_campaign=yelp_api_v3&utm_medium=api_v3_business_search&utm_source=A1HR7D-cXuiUdMXadx5pVQ", "review_count": 14, "categories": [{"alias": "halal", "title": "Halal"}, {"alias": "turkish", "title": "Turkish"}, {"alias": "mediterranean", "title": "Mediterranean"}], "rating": 5.0, "coordinates": {"latitude": 37.79081, "longitude": -122.42008}, "transactions": [], "price": "$$", "location": {"address1": "1550 California St", "address2": "", "address3": null, "city": "San Francisco", "zip_code": "94109", "country": "US", "state": "CA", "display_address": ["1550 California St", "San Francisco, CA 94109"]}, "phone": "+14155634043", "display_phone": "(415) 563-4043", "distance": 3634.2407717715596}, {"id": "los-planes-de-renderos-pupuseria-san-francisco", "name": "Los Planes De Renderos Pupuseria", "image_url": "https://s3-media4.fl.yelpcdn.com/bphoto/edvraTv5jDqSHeOz-S4EAA/o.jpg", "is_closed": false, "url": "https://www.yelp.com/biz/los-planes-de-renderos-pupuseria-san-francisco?adjust_creative=A1HR7D-cXuiUdMXadx5pVQ&utm_campaign=yelp_api_v3&utm_medium=api_v3_business_search&utm_source=A1HR7D-cXuiUdMXadx5pVQ", "review_count": 107, "categories": [{"alias": "salvadoran", "title": "Salvadoran"}], "rating": 4.0, "coordinates": {"latitude": 37.722923, "longitude": -122.4358561}, "transactions": [], "price": "$", "location": {"address1": "12 Persia Ave", "address2": "", "address3": "", "city": "San Francisco", "zip_code": "94112", "country": "US", "state": "CA", "display_address": ["12 Persia Ave", "San Francisco, CA 94112"]}, "phone": "+14155858645", "display_phone": "(415) 585-8645", "distance": 4231.746863850463}, {"id": "pizzeria-delfina-san-francisco-3", "name": "Pizzeria Delfina", "image_url": "https://s3-media3.fl.yelpcdn.com/bphoto/aqzELqKLe1DBrdmp28FwUw/o.jpg", "is_closed": false, "url": "https://www.yelp.com/biz/pizzeria-delfina-san-francisco-3?adjust_creative=A1HR7D-cXuiUdMXadx5pVQ&utm_campaign=yelp_api_v3&utm_medium=api_v3_business_search&utm_source=A1HR7D-cXuiUdMXadx5pVQ", "review_count": 1367, "categories": [{"alias": "pizza", "title": "Pizza"}, {"alias": "italian", "title": "Italian"}], "rating": 4.0, "coordinates": {"latitude": 37.789104, "longitude": -122.434441}, "transactions": ["restaurant_reservation"], "price": "$$", "location": {"address1": "2406 California St", "address2": "", "address3": "", "city": "San Francisco", "zip_code": "94115", "country": "US", "state": "CA", "display_address": ["2406 California St", "San Francisco, CA 94115"]}, "phone": "+14154401189", "display_phone": "(415) 440-1189", "distance": 3141.1586968290376}, {"id": "on-the-bridge-san-francisco", "name": "On the Bridge", "image_url": "https://s3-media1.fl.yelpcdn.com/bphoto/7fAhzEQVW4X6f4ajsqtc7A/o.jpg", "is_closed": false, "url": "https://www.yelp.com/biz/on-the-bridge-san-francisco?adjust_creative=A1HR7D-cXuiUdMXadx5pVQ&utm_campaign=yelp_api_v3&utm_medium=api_v3_business_search&utm_source=A1HR7D-cXuiUdMXadx5pVQ", "review_count": 979, "categories": [{"alias": "japacurry", "title": "Japanese Curry"}, {"alias": "noodles", "title": "Noodles"}, {"alias": "asianfusion", "title": "Asian Fusion"}], "rating": 3.5, "coordinates": {"latitude": 37.7851855192462, "longitude": -122.431340884675}, "transactions": ["pickup"], "price": "$$", "location": {"address1": "1581 Webster St", "address2": "Ste 205", "address3": "", "city": "San Francisco", "zip_code": "94115", "country": "US", "state": "CA", "display_address": ["1581 Webster St", "Ste 205", "San Francisco, CA 94115"]}, "phone": "+14159227765", "display_phone": "(415) 922-7765", "distance": 2737.531735414174}, {"id": "yamo-san-francisco", "name": "Yamo", "image_url": "https://s3-media2.fl.yelpcdn.com/bphoto/f0DbxFv2Sh1UcV5tdApunQ/o.jpg", "is_closed": false, "url": "https://www.yelp.com/biz/yamo-san-francisco?adjust_creative=A1HR7D-cXuiUdMXadx5pVQ&utm_campaign=yelp_api_v3&utm_medium=api_v3_business_search&utm_source=A1HR7D-cXuiUdMXadx5pVQ", "review_count": 1819, "categories": [{"alias": "burmese", "title": "Burmese"}, {"alias": "chinese", "title": "Chinese"}], "rating": 3.5, "coordinates": {"latitude": 37.7619463343878, "longitude": -122.419764563536}, "transactions": [], "price": "$", "location": {"address1": "3406 18th St", "address2": "", "address3": "", "city": "San Francisco", "zip_code": "94110", "country": "US", "state": "CA", "display_address": ["3406 18th St", "San Francisco, CA 94110"]}, "phone": "+14155538911", "display_phone": "(415) 553-8911", "distance": 1471.128883492002}, {"id": "upcider-san-francisco", "name": "Upcider", "image_url": "https://s3-media1.fl.yelpcdn.com/bphoto/sMU0RLYnDqfTISHDTjVpHA/o.jpg", "is_closed": false, "url": "https://www.yelp.com/biz/upcider-san-francisco?adjust_creative=A1HR7D-cXuiUdMXadx5pVQ&utm_campaign=yelp_api_v3&utm_medium=api_v3_business_search&utm_source=A1HR7D-cXuiUdMXadx5pVQ", "review_count": 514, "categories": [{"alias": "gastropubs", "title": "Gastropubs"}, {"alias": "cideries", "title": "Cideries"}], "rating": 4.0, "coordinates": {"latitude": 37.7876998366257, "longitude": -122.419924736023}, "transactions": [], "price": "$$", "location": {"address1": "1160 Polk St", "address2": "Fl 2", "address3": "", "city": "San Francisco", "zip_code": "94109", "country": "US", "state": "CA", "display_address": ["1160 Polk St", "Fl 2", "San Francisco, CA 94109"]}, "phone": "+14159665730", "display_phone": "(415) 966-5730", "distance": 3315.0645829846135}, {"id": "sauce-gough-san-francisco", "name": "Sauce Gough", "image_url": "https://s3-media3.fl.yelpcdn.com/bphoto/ikFuEFXjKFtht_akR0H15g/o.jpg", "is_closed": false, "url": "https://www.yelp.com/biz/sauce-gough-san-francisco?adjust_creative=A1HR7D-cXuiUdMXadx5pVQ&utm_campaign=yelp_api_v3&utm_medium=api_v3_business_search&utm_source=A1HR7D-cXuiUdMXadx5pVQ", "review_count": 1099, "categories": [{"alias": "newamerican", "title": "American (New)"}, {"alias": "bars", "title": "Bars"}], "rating": 3.5, "coordinates": {"latitude": 37.7746, "longitude": -122.42279}, "transactions": [], "price": "$$", "location": {"address1": "131 Gough St", "address2": "", "address3": "", "city": "San Francisco", "zip_code": "94102", "country": "US", "state": "CA", "display_address": ["131 Gough St", "San Francisco, CA 94102"]}, "phone": "+14152521369", "display_phone": "(415) 252-1369", "distance": 1939.7530050940877}, {"id": "marnee-thai-san-francisco", "name": "Marnee Thai", "image_url": "https://s3-media1.fl.yelpcdn.com/bphoto/RA1KBue8kevZ74WcHg9p1g/o.jpg", "is_closed": false, "url": "https://www.yelp.com/biz/marnee-thai-san-francisco?adjust_creative=A1HR7D-cXuiUdMXadx5pVQ&utm_campaign=yelp_api_v3&utm_medium=api_v3_business_search&utm_source=A1HR7D-cXuiUdMXadx5pVQ", "review_count": 1590, "categories": [{"alias": "thai", "title": "Thai"}], "rating": 4.0, "coordinates": {"latitude": 37.76311, "longitude": -122.4818}, "transactions": ["pickup", "restaurant_reservation"], "price": "$$", "location": {"address1": "2225 Irving St", "address2": "", "address3": "", "city": "San Francisco", "zip_code": "94122", "country": "US", "state": "CA", "display_address": ["2225 Irving St", "San Francisco, CA 94122"]}, "phone": "+14156659500", "display_phone": "(415) 665-9500", "distance": 4000.724860094766}, {"id": "chullo-nepali-indian-cuisine-san-francisco", "name": "Chullo Nepali Indian Cuisine", "image_url": "https://s3-media3.fl.yelpcdn.com/bphoto/P-V9QNlfrSEXDcTCbUTAyQ/o.jpg", "is_closed": false, "url": "https://www.yelp.com/biz/chullo-nepali-indian-cuisine-san-francisco?adjust_creative=A1HR7D-cXuiUdMXadx5pVQ&utm_campaign=yelp_api_v3&utm_medium=api_v3_business_search&utm_source=A1HR7D-cXuiUdMXadx5pVQ", "review_count": 8, "categories": [{"alias": "indpak", "title": "Indian"}, {"alias": "himalayan", "title": "Himalayan/Nepalese"}], "rating": 3.5, "coordinates": {"latitude": 37.78142, "longitude": -122.39635}, "transactions": ["delivery", "pickup"], "location": {"address1": "474 3rd St", "address2": null, "address3": "", "city": "San Francisco", "zip_code": "94107", "country": "US", "state": "CA", "display_address": ["474 3rd St", "San Francisco, CA 94107"]}, "phone": "+14155433800", "display_phone": "(415) 543-3800", "distance": 4198.547141552982}, {"id": "toyose-san-francisco-3", "name": "Toyose", "image_url": "https://s3-media2.fl.yelpcdn.com/bphoto/1_G5boQXe6JwNhw_8VyR8Q/o.jpg", "is_closed": false, "url": "https://www.yelp.com/biz/toyose-san-francisco-3?adjust_creative=A1HR7D-cXuiUdMXadx5pVQ&utm_campaign=yelp_api_v3&utm_medium=api_v3_business_search&utm_source=A1HR7D-cXuiUdMXadx5pVQ", "review_count": 1407, "categories": [{"alias": "korean", "title": "Korean"}], "rating": 3.5, "coordinates": {"latitude": 37.75322, "longitude": -122.50469}, "transactions": [], "price": "$$", "location": {"address1": "3814 Noriega St", "address2": "", "address3": "", "city": "San Francisco", "zip_code": "94122", "country": "US", "state": "CA", "display_address": ["3814 Noriega St", "San Francisco, CA 94122"]}, "phone": "+14157310232", "display_phone": "(415) 731-0232", "distance": 6059.742002041007}, {"id": "ramen-yamadaya-san-francisco", "name": "Ramen Yamadaya", "image_url": "https://s3-media2.fl.yelpcdn.com/bphoto/WwLbtcKmXfimY8xUdi5swA/o.jpg", "is_closed": false, "url": "https://www.yelp.com/biz/ramen-yamadaya-san-francisco?adjust_creative=A1HR7D-cXuiUdMXadx5pVQ&utm_campaign=yelp_api_v3&utm_medium=api_v3_business_search&utm_source=A1HR7D-cXuiUdMXadx5pVQ", "review_count": 1000, "categories": [{"alias": "ramen", "title": "Ramen"}], "rating": 3.5, "coordinates": {"latitude": 37.7860718785222, "longitude": -122.429654113948}, "transactions": ["pickup"], "price": "$$", "location": {"address1": "1728 Buchanan St", "address2": "", "address3": "", "city": "San Francisco", "zip_code": "94115", "country": "US", "state": "CA", "display_address": ["1728 Buchanan St", "San Francisco, CA 94115"]}, "phone": "+14153599983", "display_phone": "(415) 359-9983", "distance": 2862.0199370000037}, {"id": "champa-garden-san-francisco-2", "name": "Champa Garden", "image_url": "https://s3-media4.fl.yelpcdn.com/bphoto/9Agk-exmbqh6WQ71Y85-Fw/o.jpg", "is_closed": false, "url": "https://www.yelp.com/biz/champa-garden-san-francisco-2?adjust_creative=A1HR7D-cXuiUdMXadx5pVQ&utm_campaign=yelp_api_v3&utm_medium=api_v3_business_search&utm_source=A1HR7D-cXuiUdMXadx5pVQ", "review_count": 577, "categories": [{"alias": "asianfusion", "title": "Asian Fusion"}, {"alias": "thai", "title": "Thai"}, {"alias": "sportsbars", "title": "Sports Bars"}], "rating": 4.0, "coordinates": {"latitude": 37.7250728797322, "longitude": -122.4600251019}, "transactions": [], "price": "$$", "location": {"address1": "613 Faxon Ave", "address2": "", "address3": "", "city": "San Francisco", "zip_code": "94112", "country": "US", "state": "CA", "display_address": ["613 Faxon Ave", "San Francisco, CA 94112"]}, "phone": "+14153494186", "display_phone": "(415) 349-4186", "distance": 4490.894181237116}, {"id": "patxis-pizza-san-francisco-2", "name": "Patxi's Pizza", "image_url": "https://s3-media2.fl.yelpcdn.com/bphoto/EOEfNgRIFDiLv-UHnWK_eQ/o.jpg", "is_closed": false, "url": "https://www.yelp.com/biz/patxis-pizza-san-francisco-2?adjust_creative=A1HR7D-cXuiUdMXadx5pVQ&utm_campaign=yelp_api_v3&utm_medium=api_v3_business_search&utm_source=A1HR7D-cXuiUdMXadx5pVQ", "review_count": 2049, "categories": [{"alias": "pizza", "title": "Pizza"}, {"alias": "salad", "title": "Salad"}, {"alias": "italian", "title": "Italian"}], "rating": 3.5, "coordinates": {"latitude": 37.77649, "longitude": -122.425}, "transactions": ["delivery", "pickup", "restaurant_reservation"], "price": "$$", "location": {"address1": "511 Hayes St", "address2": "", "address3": "", "city": "San Francisco", "zip_code": "94102", "country": "US", "state": "CA", "display_address": ["511 Hayes St", "San Francisco, CA 94102"]}, "phone": "+14155589991", "display_phone": "(415) 558-9991", "distance": 2007.0291035360437}, {"id": "street-taco-san-francisco", "name": "Street Taco", "image_url": "https://s3-media2.fl.yelpcdn.com/bphoto/a_Ksy7b9z5eSWZ9sxiH3Iw/o.jpg", "is_closed": false, "url": "https://www.yelp.com/biz/street-taco-san-francisco?adjust_creative=A1HR7D-cXuiUdMXadx5pVQ&utm_campaign=yelp_api_v3&utm_medium=api_v3_business_search&utm_source=A1HR7D-cXuiUdMXadx5pVQ", "review_count": 472, "categories": [{"alias": "mexican", "title": "Mexican"}], "rating": 4.0, "coordinates": {"latitude": 37.7696105177356, "longitude": -122.448901621221}, "transactions": [], "price": "$", "location": {"address1": "1607 Haight St", "address2": "", "address3": "", "city": "San Francisco", "zip_code": "94117", "country": "US", "state": "CA", "display_address": ["1607 Haight St", "San Francisco, CA 94117"]}, "phone": "+14155254435", "display_phone": "(415) 525-4435", "distance": 1461.776097060892}, {"id": "the-tipsy-pig-san-francisco-2", "name": "The Tipsy Pig", "image_url": "https://s3-media2.fl.yelpcdn.com/bphoto/UXGZcFoYTwa1l6yRhbZ81Q/o.jpg", "is_closed": false, "url": "https://www.yelp.com/biz/the-tipsy-pig-san-francisco-2?adjust_creative=A1HR7D-cXuiUdMXadx5pVQ&utm_campaign=yelp_api_v3&utm_medium=api_v3_business_search&utm_source=A1HR7D-cXuiUdMXadx5pVQ", "review_count": 1410, "categories": [{"alias": "gastropubs", "title": "Gastropubs"}, {"alias": "bars", "title": "Bars"}, {"alias": "newamerican", "title": "American (New)"}], "rating": 3.5, "coordinates": {"latitude": 37.800265985505, "longitude": -122.44008192485}, "transactions": [], "price": "$$", "location": {"address1": "2231 Chestnut St", "address2": "", "address3": "", "city": "San Francisco", "zip_code": "94123", "country": "US", "state": "CA", "display_address": ["2231 Chestnut St", "San Francisco, CA 94123"]}, "phone": "+14152922300", "display_phone": "(415) 292-2300", "distance": 4389.0010310140115}, {"id": "sushirrito-san-francisco-55", "name": "Sushirrito", "image_url": "https://s3-media2.fl.yelpcdn.com/bphoto/JKMp89Oz7WoD763Iuo4EBQ/o.jpg", "is_closed": false, "url": "https://www.yelp.com/biz/sushirrito-san-francisco-55?adjust_creative=A1HR7D-cXuiUdMXadx5pVQ&utm_campaign=yelp_api_v3&utm_medium=api_v3_business_search&utm_source=A1HR7D-cXuiUdMXadx5pVQ", "review_count": 1320, "categories": [{"alias": "japanese", "title": "Japanese"}, {"alias": "sushi", "title": "Sushi Bars"}, {"alias": "asianfusion", "title": "Asian Fusion"}], "rating": 4.0, "coordinates": {"latitude": 37.7902241805415, "longitude": -122.403766215939}, "transactions": [], "price": "$$", "location": {"address1": "226 Kearny St", "address2": "", "address3": "", "city": "San Francisco", "zip_code": "94108", "country": "US", "state": "CA", "display_address": ["226 Kearny St", "San Francisco, CA 94108"]}, "phone": "+14155449868", "display_phone": "(415) 544-9868", "distance": 4345.443633974152}, {"id": "burger-bar-san-francisco", "name": "Burger Bar", "image_url": "https://s3-media2.fl.yelpcdn.com/bphoto/kkklrvNHKCHwZjuU_25gyQ/o.jpg", "is_closed": false, "url": "https://www.yelp.com/biz/burger-bar-san-francisco?adjust_creative=A1HR7D-cXuiUdMXadx5pVQ&utm_campaign=yelp_api_v3&utm_medium=api_v3_business_search&utm_source=A1HR7D-cXuiUdMXadx5pVQ", "review_count": 2123, "categories": [{"alias": "burgers", "title": "Burgers"}, {"alias": "tradamerican", "title": "American (Traditional)"}], "rating": 3.0, "coordinates": {"latitude": 37.7872902008062, "longitude": -122.407428324222}, "transactions": ["pickup", "restaurant_reservation"], "price": "$$", "location": {"address1": "251 Geary St", "address2": "Fl 6", "address3": "", "city": "San Francisco", "zip_code": "94102", "country": "US", "state": "CA", "display_address": ["251 Geary St", "Fl 6", "San Francisco, CA 94102"]}, "phone": "+14152964272", "display_phone": "(415) 296-4272", "distance": 3888.0029208000997}, {"id": "tataki-san-francisco", "name": "Tataki", "image_url": "https://s3-media1.fl.yelpcdn.com/bphoto/qlTQfVGcHLZYx1k-o8mCMQ/o.jpg", "is_closed": false, "url": "https://www.yelp.com/biz/tataki-san-francisco?adjust_creative=A1HR7D-cXuiUdMXadx5pVQ&utm_campaign=yelp_api_v3&utm_medium=api_v3_business_search&utm_source=A1HR7D-cXuiUdMXadx5pVQ", "review_count": 1133, "categories": [{"alias": "sushi", "title": "Sushi Bars"}, {"alias": "bars", "title": "Bars"}], "rating": 4.0, "coordinates": {"latitude": 37.7878390504557, "longitude": -122.441227674274}, "transactions": [], "price": "$$", "location": {"address1": "2827 California St", "address2": "", "address3": "", "city": "San Francisco", "zip_code": "94115", "country": "US", "state": "CA", "display_address": ["2827 California St", "San Francisco, CA 94115"]}, "phone": "+14159311182", "display_phone": "(415) 931-1182", "distance": 3024.8740511756478}, {"id": "twenty-five-lusk-san-francisco", "name": "Twenty Five Lusk", "image_url": "https://s3-media1.fl.yelpcdn.com/bphoto/hvU3ZwCr_nlfy8-4zM-Y9A/o.jpg", "is_closed": false, "url": "https://www.yelp.com/biz/twenty-five-lusk-san-francisco?adjust_creative=A1HR7D-cXuiUdMXadx5pVQ&utm_campaign=yelp_api_v3&utm_medium=api_v3_business_search&utm_source=A1HR7D-cXuiUdMXadx5pVQ", "review_count": 1272, "categories": [{"alias": "newamerican", "title": "American (New)"}, {"alias": "lounges", "title": "Lounges"}], "rating": 4.0, "coordinates": {"latitude": 37.7785264, "longitude": -122.3943527}, "transactions": ["restaurant_reservation"], "price": "$$$", "location": {"address1": "25 Lusk St", "address2": "", "address3": "", "city": "San Francisco", "zip_code": "94107", "country": "US", "state": "CA", "display_address": ["25 Lusk St", "San Francisco, CA 94107"]}, "phone": "+14154955875", "display_phone": "(415) 495-5875", "distance": 4187.07380054604}, {"id": "the-richmond-san-francisco", "name": "The Richmond", "image_url": "https://s3-media1.fl.yelpcdn.com/bphoto/Y1jWoQWe4An18NrlJDeyMQ/o.jpg", "is_closed": false, "url": "https://www.yelp.com/biz/the-richmond-san-francisco?adjust_creative=A1HR7D-cXuiUdMXadx5pVQ&utm_campaign=yelp_api_v3&utm_medium=api_v3_business_search&utm_source=A1HR7D-cXuiUdMXadx5pVQ", "review_count": 637, "categories": [{"alias": "wine_bars", "title": "Wine Bars"}, {"alias": "newamerican", "title": "American (New)"}], "rating": 4.5, "coordinates": {"latitude": 37.77702, "longitude": -122.46534}, "transactions": ["restaurant_reservation"], "price": "$$$", "location": {"address1": "615 Balboa St", "address2": "", "address3": "", "city": "San Francisco", "zip_code": "94118", "country": "US", "state": "CA", "display_address": ["615 Balboa St", "San Francisco, CA 94118"]}, "phone": "+14153798988", "display_phone": "(415) 379-8988", "distance": 3116.724534361822}, {"id": "prospect-san-francisco", "name": "Prospect", "image_url": "https://s3-media3.fl.yelpcdn.com/bphoto/OuBrSACvSN5dpEgg67fr3g/o.jpg", "is_closed": false, "url": "https://www.yelp.com/biz/prospect-san-francisco?adjust_creative=A1HR7D-cXuiUdMXadx5pVQ&utm_campaign=yelp_api_v3&utm_medium=api_v3_business_search&utm_source=A1HR7D-cXuiUdMXadx5pVQ", "review_count": 1428, "categories": [{"alias": "newamerican", "title": "American (New)"}], "rating": 4.0, "coordinates": {"latitude": 37.7897917872845, "longitude": -122.390961392642}, "transactions": ["restaurant_reservation"], "price": "$$$", "location": {"address1": "300 Spear St", "address2": "", "address3": "", "city": "San Francisco", "zip_code": "94105", "country": "US", "state": "CA", "display_address": ["300 Spear St", "San Francisco, CA 94105"]}, "phone": "+14152477770", "display_phone": "(415) 247-7770", "distance": 5128.688889348604}, {"id": "mourad-restaurant-san-francisco", "name": "Mourad Restaurant", "image_url": "https://s3-media2.fl.yelpcdn.com/bphoto/wlbRTdS4LXvR1vR4sVwirA/o.jpg", "is_closed": false, "url": "https://www.yelp.com/biz/mourad-restaurant-san-francisco?adjust_creative=A1HR7D-cXuiUdMXadx5pVQ&utm_campaign=yelp_api_v3&utm_medium=api_v3_business_search&utm_source=A1HR7D-cXuiUdMXadx5pVQ", "review_count": 702, "categories": [{"alias": "moroccan", "title": "Moroccan"}, {"alias": "venues", "title": "Venues & Event Spaces"}, {"alias": "bars", "title": "Bars"}], "rating": 4.0, "coordinates": {"latitude": 37.7867223261028, "longitude": -122.39984530222}, "transactions": [], "price": "$$$", "location": {"address1": "140 New Montgomery St", "address2": "Ste 1", "address3": "", "city": "San Francisco", "zip_code": "94105", "country": "US", "state": "CA", "display_address": ["140 New Montgomery St", "Ste 1", "San Francisco, CA 94105"]}, "phone": "+14156602500", "display_phone": "(415) 660-2500", "distance": 4312.077566109986}, {"id": "franciscan-crab-restaurant-san-francisco-2", "name": "Franciscan Crab Restaurant", "image_url": "https://s3-media1.fl.yelpcdn.com/bphoto/spodGYUfCF_PCpzbXOEqmQ/o.jpg", "is_closed": false, "url": "https://www.yelp.com/biz/franciscan-crab-restaurant-san-francisco-2?adjust_creative=A1HR7D-cXuiUdMXadx5pVQ&utm_campaign=yelp_api_v3&utm_medium=api_v3_business_search&utm_source=A1HR7D-cXuiUdMXadx5pVQ", "review_count": 1403, "categories": [{"alias": "seafood", "title": "Seafood"}, {"alias": "tradamerican", "title": "American (Traditional)"}], "rating": 3.5, "coordinates": {"latitude": 37.8092604518138, "longitude": -122.414643587598}, "transactions": [], "price": "$$$", "location": {"address1": "Pier 43 1/2 Fisherman's Wharf", "address2": "", "address3": "Fisherman's Wharf", "city": "San Francisco", "zip_code": "94133", "country": "US", "state": "CA", "display_address": ["Pier 43 1/2 Fisherman's Wharf", "Fisherman's Wharf", "San Francisco, CA 94133"]}, "phone": "+14153627733", "display_phone": "(415) 362-7733", "distance": 5708.662220562043}, {"id": "brendas-meat-and-three-san-francisco-3", "name": "Brenda's Meat & Three", "image_url": "https://s3-media2.fl.yelpcdn.com/bphoto/jaTBzvwG6WxT9NTk4tN6Dw/o.jpg", "is_closed": false, "url": "https://www.yelp.com/biz/brendas-meat-and-three-san-francisco-3?adjust_creative=A1HR7D-cXuiUdMXadx5pVQ&utm_campaign=yelp_api_v3&utm_medium=api_v3_business_search&utm_source=A1HR7D-cXuiUdMXadx5pVQ", "review_count": 685, "categories": [{"alias": "soulfood", "title": "Soul Food"}, {"alias": "breakfast_brunch", "title": "Breakfast & Brunch"}, {"alias": "southern", "title": "Southern"}], "rating": 4.0, "coordinates": {"latitude": 37.7781489203981, "longitude": -122.438551256878}, "transactions": ["restaurant_reservation"], "price": "$$", "location": {"address1": "919 Divisadero St", "address2": "", "address3": "", "city": "San Francisco", "zip_code": "94115", "country": "US", "state": "CA", "display_address": ["919 Divisadero St", "San Francisco, CA 94115"]}, "phone": "+14159268657", "display_phone": "(415) 926-8657", "distance": 1926.9541149418117}, {"id": "1760-san-francisco", "name": "1760", "image_url": "https://s3-media4.fl.yelpcdn.com/bphoto/5a0l30lt79y88moLpotiag/o.jpg", "is_closed": false, "url": "https://www.yelp.com/biz/1760-san-francisco?adjust_creative=A1HR7D-cXuiUdMXadx5pVQ&utm_campaign=yelp_api_v3&utm_medium=api_v3_business_search&utm_source=A1HR7D-cXuiUdMXadx5pVQ", "review_count": 633, "categories": [{"alias": "newamerican", "title": "American (New)"}, {"alias": "cocktailbars", "title": "Cocktail Bars"}], "rating": 4.0, "coordinates": {"latitude": 37.79312, "longitude": -122.4209}, "transactions": [], "price": "$$$", "location": {"address1": "1760 Polk St", "address2": "", "address3": "", "city": "San Francisco", "zip_code": "94109", "country": "US", "state": "CA", "display_address": ["1760 Polk St", "San Francisco, CA 94109"]}, "phone": "+14153591212", "display_phone": "(415) 359-1212", "distance": 3837.0259656945664}, {"id": "poc-chuc-san-francisco", "name": "Poc-Chuc", "image_url": "https://s3-media2.fl.yelpcdn.com/bphoto/E22Y127iIRI_InMnUPO0DQ/o.jpg", "is_closed": false, "url": "https://www.yelp.com/biz/poc-chuc-san-francisco?adjust_creative=A1HR7D-cXuiUdMXadx5pVQ&utm_campaign=yelp_api_v3&utm_medium=api_v3_business_search&utm_source=A1HR7D-cXuiUdMXadx5pVQ", "review_count": 497, "categories": [{"alias": "latin", "title": "Latin American"}, {"alias": "mexican", "title": "Mexican"}, {"alias": "bars", "title": "Bars"}], "rating": 4.5, "coordinates": {"latitude": 37.765643, "longitude": -122.417139}, "transactions": [], "price": "$$", "location": {"address1": "2886 16th St", "address2": "", "address3": "", "city": "San Francisco", "zip_code": "94103", "country": "US", "state": "CA", "display_address": ["2886 16th St", "San Francisco, CA 94103"]}, "phone": "+14155581583", "display_phone": "(415) 558-1583", "distance": 1777.3501310251659}, {"id": "ebisu-san-francisco", "name": "Ebisu", "image_url": "https://s3-media3.fl.yelpcdn.com/bphoto/LBXwE1lTAB58073vOlMONA/o.jpg", "is_closed": false, "url": "https://www.yelp.com/biz/ebisu-san-francisco?adjust_creative=A1HR7D-cXuiUdMXadx5pVQ&utm_campaign=yelp_api_v3&utm_medium=api_v3_business_search&utm_source=A1HR7D-cXuiUdMXadx5pVQ", "review_count": 1595, "categories": [{"alias": "sushi", "title": "Sushi Bars"}, {"alias": "japanese", "title": "Japanese"}], "rating": 4.0, "coordinates": {"latitude": 37.7644547169329, "longitude": -122.466417011814}, "transactions": [], "price": "$$", "location": {"address1": "1283 9th Ave", "address2": "", "address3": "", "city": "San Francisco", "zip_code": "94122", "country": "US", "state": "CA", "display_address": ["1283 9th Ave", "San Francisco, CA 94122"]}, "phone": "+14155661770", "display_phone": "(415) 566-1770", "distance": 2664.0131175129422}, {"id": "the-old-clam-house-san-francisco", "name": "The Old Clam House", "image_url": "https://s3-media3.fl.yelpcdn.com/bphoto/sjwbORwA_ozWa6aX93eSvA/o.jpg", "is_closed": false, "url": "https://www.yelp.com/biz/the-old-clam-house-san-francisco?adjust_creative=A1HR7D-cXuiUdMXadx5pVQ&utm_campaign=yelp_api_v3&utm_medium=api_v3_business_search&utm_source=A1HR7D-cXuiUdMXadx5pVQ", "review_count": 682, "categories": [{"alias": "seafood", "title": "Seafood"}, {"alias": "tradamerican", "title": "American (Traditional)"}], "rating": 3.5, "coordinates": {"latitude": 37.743104492865, "longitude": -122.404920842484}, "transactions": [], "price": "$$", "location": {"address1": "299 Bayshore Blvd", "address2": "", "address3": "", "city": "San Francisco", "zip_code": "94124", "country": "US", "state": "CA", "display_address": ["299 Bayshore Blvd", "San Francisco, CA 94124"]}, "phone": "+14158264880", "display_phone": "(415) 826-4880", "distance": 3405.550019315702}, {"id": "tahini-san-francisco-2", "name": "Tahini", "image_url": "https://s3-media2.fl.yelpcdn.com/bphoto/VMkg2wXlBCyKM-mjT-veJA/o.jpg", "is_closed": false, "url": "https://www.yelp.com/biz/tahini-san-francisco-2?adjust_creative=A1HR7D-cXuiUdMXadx5pVQ&utm_campaign=yelp_api_v3&utm_medium=api_v3_business_search&utm_source=A1HR7D-cXuiUdMXadx5pVQ", "review_count": 92, "categories": [{"alias": "mideastern", "title": "Middle Eastern"}, {"alias": "falafel", "title": "Falafel"}, {"alias": "kebab", "title": "Kebab"}], "rating": 4.5, "coordinates": {"latitude": 37.7513420421964, "longitude": -122.418300968497}, "transactions": ["pickup", "delivery"], "price": "$$", "location": {"address1": "2859 Mission St", "address2": null, "address3": "", "city": "San Francisco", "zip_code": "94110", "country": "US", "state": "CA", "display_address": ["2859 Mission St", "San Francisco, CA 94110"]}, "phone": "+14158008681", "display_phone": "(415) 800-8681", "distance": 1916.8568034089178}, {"id": "bellota-san-francisco", "name": "Bellota", "image_url": "https://s3-media2.fl.yelpcdn.com/bphoto/HiSGh12wGN6ddQKuLI4FFQ/o.jpg", "is_closed": false, "url": "https://www.yelp.com/biz/bellota-san-francisco?adjust_creative=A1HR7D-cXuiUdMXadx5pVQ&utm_campaign=yelp_api_v3&utm_medium=api_v3_business_search&utm_source=A1HR7D-cXuiUdMXadx5pVQ", "review_count": 365, "categories": [{"alias": "spanish", "title": "Spanish"}, {"alias": "seafood", "title": "Seafood"}, {"alias": "tapas", "title": "Tapas Bars"}], "rating": 4.0, "coordinates": {"latitude": 37.772, "longitude": -122.40526}, "transactions": [], "price": "$$$", "location": {"address1": "888 Brannan St", "address2": null, "address3": null, "city": "San Francisco", "zip_code": "94103", "country": "US", "state": "CA", "display_address": ["888 Brannan St", "San Francisco, CA 94103"]}, "phone": "+14154306580", "display_phone": "(415) 430-6580", "distance": 3009.42822110633}, {"id": "malasa-san-francisco", "name": "Malasa", "image_url": "https://s3-media4.fl.yelpcdn.com/bphoto/gn5up_MszDM9lQjkHjxU4g/o.jpg", "is_closed": false, "url": "https://www.yelp.com/biz/malasa-san-francisco?adjust_creative=A1HR7D-cXuiUdMXadx5pVQ&utm_campaign=yelp_api_v3&utm_medium=api_v3_business_search&utm_source=A1HR7D-cXuiUdMXadx5pVQ", "review_count": 55, "categories": [{"alias": "filipino", "title": "Filipino"}], "rating": 4.5, "coordinates": {"latitude": 37.76336, "longitude": -122.46593}, "transactions": [], "price": "$$", "location": {"address1": "1336 9th Ave", "address2": null, "address3": "", "city": "San Francisco", "zip_code": "94122", "country": "US", "state": "CA", "display_address": ["1336 9th Ave", "San Francisco, CA 94122"]}, "phone": "+14156829980", "display_phone": "(415) 682-9980", "distance": 2619.6402558250315}, {"id": "coin-op-game-room-san-francisco", "name": "Coin-Op Game Room", "image_url": "https://s3-media3.fl.yelpcdn.com/bphoto/6nSAPOw9ay6ZdH-2EQVSJw/o.jpg", "is_closed": false, "url": "https://www.yelp.com/biz/coin-op-game-room-san-francisco?adjust_creative=A1HR7D-cXuiUdMXadx5pVQ&utm_campaign=yelp_api_v3&utm_medium=api_v3_business_search&utm_source=A1HR7D-cXuiUdMXadx5pVQ", "review_count": 307, "categories": [{"alias": "bars", "title": "Bars"}, {"alias": "eatertainment", "title": "Eatertainment"}, {"alias": "tradamerican", "title": "American (Traditional)"}], "rating": 4.5, "coordinates": {"latitude": 37.7791938781738, "longitude": -122.398078918457}, "transactions": [], "price": "$$", "location": {"address1": "508 4th St", "address2": "", "address3": "", "city": "San Francisco", "zip_code": "94107", "country": "US", "state": "CA", "display_address": ["508 4th St", "San Francisco, CA 94107"]}, "phone": "+16284443277", "display_phone": "(628) 444-3277", "distance": 3936.713228502348}, {"id": "bullshead-restaurant-san-francisco", "name": "Bullshead Restaurant", "image_url": "https://s3-media4.fl.yelpcdn.com/bphoto/AWuY3xiD2lsuikGLAf5Y8g/o.jpg", "is_closed": false, "url": "https://www.yelp.com/biz/bullshead-restaurant-san-francisco?adjust_creative=A1HR7D-cXuiUdMXadx5pVQ&utm_campaign=yelp_api_v3&utm_medium=api_v3_business_search&utm_source=A1HR7D-cXuiUdMXadx5pVQ", "review_count": 737, "categories": [{"alias": "steak", "title": "Steakhouses"}, {"alias": "burgers", "title": "Burgers"}, {"alias": "tradamerican", "title": "American (Traditional)"}], "rating": 4.0, "coordinates": {"latitude": 37.740951, "longitude": -122.465413}, "transactions": [], "price": "$$", "location": {"address1": "840 Ulloa St", "address2": "", "address3": "", "city": "San Francisco", "zip_code": "94127", "country": "US", "state": "CA", "display_address": ["840 Ulloa St", "San Francisco, CA 94127"]}, "phone": "+14156654350", "display_phone": "(415) 665-4350", "distance": 3377.2345138835476}, {"id": "cioppinos-san-francisco", "name": "Cioppino's", "image_url": "https://s3-media4.fl.yelpcdn.com/bphoto/_1-K4-7H82lMvBEtIff4VA/o.jpg", "is_closed": false, "url": "https://www.yelp.com/biz/cioppinos-san-francisco?adjust_creative=A1HR7D-cXuiUdMXadx5pVQ&utm_campaign=yelp_api_v3&utm_medium=api_v3_business_search&utm_source=A1HR7D-cXuiUdMXadx5pVQ", "review_count": 1305, "categories": [{"alias": "italian", "title": "Italian"}, {"alias": "seafood", "title": "Seafood"}, {"alias": "bars", "title": "Bars"}], "rating": 3.5, "coordinates": {"latitude": 37.8079387690789, "longitude": -122.41927103988}, "transactions": [], "price": "$$", "location": {"address1": "400 Jefferson St", "address2": "", "address3": "", "city": "San Francisco", "zip_code": "94109", "country": "US", "state": "CA", "display_address": ["400 Jefferson St", "San Francisco, CA 94109"]}, "phone": "+14157759311", "display_phone": "(415) 775-9311", "distance": 5443.975620395529}, {"id": "papito-potrero-hill-san-francisco", "name": "Papito Potrero Hill", "image_url": "https://s3-media4.fl.yelpcdn.com/bphoto/5yh_cB3OcTma_7ZHZkbRog/o.jpg", "is_closed": false, "url": "https://www.yelp.com/biz/papito-potrero-hill-san-francisco?adjust_creative=A1HR7D-cXuiUdMXadx5pVQ&utm_campaign=yelp_api_v3&utm_medium=api_v3_business_search&utm_source=A1HR7D-cXuiUdMXadx5pVQ", "review_count": 595, "categories": [{"alias": "mexican", "title": "Mexican"}], "rating": 4.0, "coordinates": {"latitude": 37.762331217976, "longitude": -122.39734047586}, "transactions": [], "price": "$$", "location": {"address1": "317 Connecticut St", "address2": "", "address3": "", "city": "San Francisco", "zip_code": "94107", "country": "US", "state": "CA", "display_address": ["317 Connecticut St", "San Francisco, CA 94107"]}, "phone": "+14156950147", "display_phone": "(415) 695-0147", "distance": 3441.425596220138}, {"id": "papalote-mexican-grill-san-francisco-2", "name": "Papalote Mexican Grill", "image_url": "https://s3-media2.fl.yelpcdn.com/bphoto/1OaCE9zsjxFB_4fkXbcVCQ/o.jpg", "is_closed": false, "url": "https://www.yelp.com/biz/papalote-mexican-grill-san-francisco-2?adjust_creative=A1HR7D-cXuiUdMXadx5pVQ&utm_campaign=yelp_api_v3&utm_medium=api_v3_business_search&utm_source=A1HR7D-cXuiUdMXadx5pVQ", "review_count": 1282, "categories": [{"alias": "mexican", "title": "Mexican"}], "rating": 3.5, "coordinates": {"latitude": 37.775691986084, "longitude": -122.446029663086}, "transactions": [], "price": "$", "location": {"address1": "1777 Fulton St", "address2": null, "address3": "", "city": "San Francisco", "zip_code": "94117", "country": "US", "state": "CA", "display_address": ["1777 Fulton St", "San Francisco, CA 94117"]}, "phone": "+14157760106", "display_phone": "(415) 776-0106", "distance": 1848.729986921542}, {"id": "bubba-gump-shrimp-san-francisco", "name": "Bubba Gump Shrimp", "image_url": "https://s3-media3.fl.yelpcdn.com/bphoto/-vuRPkwPWGGjfSjp__D3Mw/o.jpg", "is_closed": false, "url": "https://www.yelp.com/biz/bubba-gump-shrimp-san-francisco?adjust_creative=A1HR7D-cXuiUdMXadx5pVQ&utm_campaign=yelp_api_v3&utm_medium=api_v3_business_search&utm_source=A1HR7D-cXuiUdMXadx5pVQ", "review_count": 1387, "categories": [{"alias": "seafood", "title": "Seafood"}, {"alias": "southern", "title": "Southern"}], "rating": 3.0, "coordinates": {"latitude": 37.8111256937989, "longitude": -122.410359308124}, "transactions": [], "price": "$$", "location": {"address1": "39 Piers Box M-211", "address2": "", "address3": "", "city": "San Francisco", "zip_code": "94133", "country": "US", "state": "CA", "display_address": ["39 Piers Box M-211", "San Francisco, CA 94133"]}, "phone": "+14157814867", "display_phone": "(415) 781-4867", "distance": 6037.126351770018}, {"id": "koja-kitchen-san-francisco-7", "name": "Koja Kitchen", "image_url": "https://s3-media4.fl.yelpcdn.com/bphoto/gmOgBfr9AznLz47yD6jvRQ/o.jpg", "is_closed": false, "url": "https://www.yelp.com/biz/koja-kitchen-san-francisco-7?adjust_creative=A1HR7D-cXuiUdMXadx5pVQ&utm_campaign=yelp_api_v3&utm_medium=api_v3_business_search&utm_source=A1HR7D-cXuiUdMXadx5pVQ", "review_count": 481, "categories": [{"alias": "japanese", "title": "Japanese"}, {"alias": "korean", "title": "Korean"}, {"alias": "asianfusion", "title": "Asian Fusion"}], "rating": 4.0, "coordinates": {"latitude": 37.7828700207607, "longitude": -122.463096337593}, "transactions": ["pickup"], "price": "$$", "location": {"address1": "343 Clement St", "address2": null, "address3": "", "city": "San Francisco", "zip_code": "94118", "country": "US", "state": "CA", "display_address": ["343 Clement St", "San Francisco, CA 94118"]}, "phone": "+14154635085", "display_phone": "(415) 463-5085", "distance": 3384.494942019362}, {"id": "taqueria-guadalajara-san-francisco", "name": "Taqueria Guadalajara", "image_url": "https://s3-media2.fl.yelpcdn.com/bphoto/Z9S7WKeOGszE88ten23Rrw/o.jpg", "is_closed": false, "url": "https://www.yelp.com/biz/taqueria-guadalajara-san-francisco?adjust_creative=A1HR7D-cXuiUdMXadx5pVQ&utm_campaign=yelp_api_v3&utm_medium=api_v3_business_search&utm_source=A1HR7D-cXuiUdMXadx5pVQ", "review_count": 794, "categories": [{"alias": "mexican", "title": "Mexican"}], "rating": 4.0, "coordinates": {"latitude": 37.7212907373905, "longitude": -122.437459006906}, "transactions": [], "price": "$", "location": {"address1": "4798 Mission St", "address2": "", "address3": "", "city": "San Francisco", "zip_code": "94112", "country": "US", "state": "CA", "display_address": ["4798 Mission St", "San Francisco, CA 94112"]}, "phone": "+14154695480", "display_phone": "(415) 469-5480", "distance": 4417.880626531433}, {"id": "tacolicious-san-francisco", "name": "Tacolicious", "image_url": "https://s3-media1.fl.yelpcdn.com/bphoto/aDl4l-z3S_4ffexEhB3uiA/o.jpg", "is_closed": false, "url": "https://www.yelp.com/biz/tacolicious-san-francisco?adjust_creative=A1HR7D-cXuiUdMXadx5pVQ&utm_campaign=yelp_api_v3&utm_medium=api_v3_business_search&utm_source=A1HR7D-cXuiUdMXadx5pVQ", "review_count": 1429, "categories": [{"alias": "mexican", "title": "Mexican"}, {"alias": "cocktailbars", "title": "Cocktail Bars"}], "rating": 3.5, "coordinates": {"latitude": 37.8004125, "longitude": -122.4404725}, "transactions": ["restaurant_reservation", "delivery", "pickup"], "price": "$$", "location": {"address1": "2250 Chestnut St", "address2": "", "address3": "", "city": "San Francisco", "zip_code": "94123", "country": "US", "state": "CA", "display_address": ["2250 Chestnut St", "San Francisco, CA 94123"]}, "phone": "+14156496077", "display_phone": "(415) 649-6077", "distance": 4407.871608701761}, {"id": "cordon-bleu-san-francisco", "name": "Cordon Bleu", "image_url": "https://s3-media4.fl.yelpcdn.com/bphoto/meEksAAVcW-i67R5lmYUyg/o.jpg", "is_closed": false, "url": "https://www.yelp.com/biz/cordon-bleu-san-francisco?adjust_creative=A1HR7D-cXuiUdMXadx5pVQ&utm_campaign=yelp_api_v3&utm_medium=api_v3_business_search&utm_source=A1HR7D-cXuiUdMXadx5pVQ", "review_count": 960, "categories": [{"alias": "vietnamese", "title": "Vietnamese"}, {"alias": "asianfusion", "title": "Asian Fusion"}], "rating": 4.0, "coordinates": {"latitude": 37.7907203, "longitude": -122.4205111}, "transactions": [], "price": "$", "location": {"address1": "1574 California St", "address2": "", "address3": "", "city": "San Francisco", "zip_code": "94109", "country": "US", "state": "CA", "display_address": ["1574 California St", "San Francisco, CA 94109"]}, "phone": "+14156735637", "display_phone": "(415) 673-5637", "distance": 3626.409610355892}, {"id": "crustacean-restaurant-san-francisco", "name": "Crustacean Restaurant", "image_url": "https://s3-media1.fl.yelpcdn.com/bphoto/Mj_YzW4QDarOlM7Oyf_fxA/o.jpg", "is_closed": false, "url": "https://www.yelp.com/biz/crustacean-restaurant-san-francisco?adjust_creative=A1HR7D-cXuiUdMXadx5pVQ&utm_campaign=yelp_api_v3&utm_medium=api_v3_business_search&utm_source=A1HR7D-cXuiUdMXadx5pVQ", "review_count": 1289, "categories": [{"alias": "asianfusion", "title": "Asian Fusion"}, {"alias": "vietnamese", "title": "Vietnamese"}], "rating": 3.5, "coordinates": {"latitude": 37.79028, "longitude": -122.4209}, "transactions": ["restaurant_reservation"], "price": "$$$", "location": {"address1": "1475 Polk St", "address2": "Ste 6", "address3": "", "city": "San Francisco", "zip_code": "94109", "country": "US", "state": "CA", "display_address": ["1475 Polk St", "Ste 6", "San Francisco, CA 94109"]}, "phone": "+14157762722", "display_phone": "(415) 776-2722", "distance": 3542.428039356568}, {"id": "dotties-true-blue-cafe-san-francisco", "name": "Dottie's True Blue Cafe", "image_url": "https://s3-media3.fl.yelpcdn.com/bphoto/TNPVifX6XGdEVpv_O9_1cA/o.jpg", "is_closed": false, "url": "https://www.yelp.com/biz/dotties-true-blue-cafe-san-francisco?adjust_creative=A1HR7D-cXuiUdMXadx5pVQ&utm_campaign=yelp_api_v3&utm_medium=api_v3_business_search&utm_source=A1HR7D-cXuiUdMXadx5pVQ", "review_count": 3780, "categories": [{"alias": "tradamerican", "title": "American (Traditional)"}, {"alias": "breakfast_brunch", "title": "Breakfast & Brunch"}, {"alias": "cafes", "title": "Cafes"}], "rating": 4.0, "coordinates": {"latitude": 37.7817050429594, "longitude": -122.409839630127}, "transactions": [], "price": "$$", "location": {"address1": "28 6th St", "address2": "", "address3": "", "city": "San Francisco", "zip_code": "94103", "country": "US", "state": "CA", "display_address": ["28 6th St", "San Francisco, CA 94103"]}, "phone": "+14158852767", "display_phone": "(415) 885-2767", "distance": 3289.6183466639636}, {"id": "flore-san-francisco-5", "name": "Flore", "image_url": "https://s3-media2.fl.yelpcdn.com/bphoto/VqbR4iQ8t2Q_0AZbwg0OJA/o.jpg", "is_closed": false, "url": "https://www.yelp.com/biz/flore-san-francisco-5?adjust_creative=A1HR7D-cXuiUdMXadx5pVQ&utm_campaign=yelp_api_v3&utm_medium=api_v3_business_search&utm_source=A1HR7D-cXuiUdMXadx5pVQ", "review_count": 997, "categories": [{"alias": "newamerican", "title": "American (New)"}, {"alias": "bars", "title": "Bars"}], "rating": 3.5, "coordinates": {"latitude": 37.76466, "longitude": -122.43294}, "transactions": ["pickup", "delivery"], "price": "$$", "location": {"address1": "2298 Market St", "address2": "", "address3": "", "city": "San Francisco", "zip_code": "94114", "country": "US", "state": "CA", "display_address": ["2298 Market St", "San Francisco, CA 94114"]}, "phone": "+14156218579", "display_phone": "(415) 621-8579", "distance": 519.422469901344}, {"id": "am\u00e9lie-san-francisco-2", "name": "Am\u00e9lie", "image_url": "https://s3-media1.fl.yelpcdn.com/bphoto/3F981uQFe5lDXJRVeaRAQw/o.jpg", "is_closed": false, "url": "https://www.yelp.com/biz/am%C3%A9lie-san-francisco-2?adjust_creative=A1HR7D-cXuiUdMXadx5pVQ&utm_campaign=yelp_api_v3&utm_medium=api_v3_business_search&utm_source=A1HR7D-cXuiUdMXadx5pVQ", "review_count": 1235, "categories": [{"alias": "wine_bars", "title": "Wine Bars"}, {"alias": "lounges", "title": "Lounges"}, {"alias": "french", "title": "French"}], "rating": 4.0, "coordinates": {"latitude": 37.7931200864529, "longitude": -122.420906547632}, "transactions": ["restaurant_reservation"], "price": "$$", "location": {"address1": "1754 Polk St", "address2": null, "address3": "", "city": "San Francisco", "zip_code": "94109", "country": "US", "state": "CA", "display_address": ["1754 Polk St", "San Francisco, CA 94109"]}, "phone": "+14152926916", "display_phone": "(415) 292-6916", "distance": 3834.290854223208}, {"id": "anchor-and-hope-san-francisco", "name": "Anchor & Hope", "image_url": "https://s3-media2.fl.yelpcdn.com/bphoto/m6G4CK4hbDpxj6ZofPf-Dg/o.jpg", "is_closed": false, "url": "https://www.yelp.com/biz/anchor-and-hope-san-francisco?adjust_creative=A1HR7D-cXuiUdMXadx5pVQ&utm_campaign=yelp_api_v3&utm_medium=api_v3_business_search&utm_source=A1HR7D-cXuiUdMXadx5pVQ", "review_count": 1403, "categories": [{"alias": "seafood", "title": "Seafood"}, {"alias": "wine_bars", "title": "Wine Bars"}], "rating": 3.5, "coordinates": {"latitude": 37.78775, "longitude": -122.39877}, "transactions": [], "price": "$$$", "location": {"address1": "83 Minna St", "address2": "", "address3": "", "city": "San Francisco", "zip_code": "94105", "country": "US", "state": "CA", "display_address": ["83 Minna St", "San Francisco, CA 94105"]}, "phone": "+14155019100", "display_phone": "(415) 501-9100", "distance": 4459.28405700492}, {"id": "helmand-palace-san-francisco", "name": "Helmand Palace", "image_url": "https://s3-media2.fl.yelpcdn.com/bphoto/7czEU1DzVUpLeJoZxMkHVg/o.jpg", "is_closed": false, "url": "https://www.yelp.com/biz/helmand-palace-san-francisco?adjust_creative=A1HR7D-cXuiUdMXadx5pVQ&utm_campaign=yelp_api_v3&utm_medium=api_v3_business_search&utm_source=A1HR7D-cXuiUdMXadx5pVQ", "review_count": 736, "categories": [{"alias": "afghani", "title": "Afghan"}, {"alias": "mediterranean", "title": "Mediterranean"}, {"alias": "halal", "title": "Halal"}], "rating": 4.5, "coordinates": {"latitude": 37.798, "longitude": -122.42343}, "transactions": ["delivery", "pickup", "restaurant_reservation"], "price": "$$", "location": {"address1": "2424 Van Ness Ave", "address2": "", "address3": "", "city": "San Francisco", "zip_code": "94109", "country": "US", "state": "CA", "display_address": ["2424 Van Ness Ave", "San Francisco, CA 94109"]}, "phone": "+14153450072", "display_phone": "(415) 345-0072", "distance": 4277.23774111747}], "total": 4900, "region": {"center": {"longitude": -122.4364471436, "latitude": 37.7608993898}}}